"","state.abb","id","year","total_liabilities","current_liabilities","net_pension_liability","net_pension_assets","net_opeb_liability","net_opeb_assets","total_assets","current_assets","expenses","revenues","ncesID","name","state.name","enrollment_20","fte_20","revenue_nces_20","expenditure_nces_20","enrollment_21","fte_21","revenue_nces_21","expenditure_nces_21","county","city","zip","zip4","locale","latitude","longitude","congresstional_code","metro_code","enrollment_22","fte_22"
"1","FL","148148",2020,1220077040,66761812,397711685,220109,98611974,0,1680238811,0,801681147,823883566,"1201530","Pasco County District School Board","Florida",76661,4650.93,"819581000","807965000",77125,4790.18,"888274000","928434000","Pasco County","LAND O LAKES",34638,"2826","21-Suburb: Large",28.262694,-82.477158,1212,"1-Metropolitan Area",81157,4711.88
"2","FL","148130",2020,651729633,49829053,278088728,0,11302048,0,1196146727,0,638104506,618558687,"1201230","Manatee County District School Board","Florida",50088,2945.63,"606069000","604864000",49181,2856.84,"642636000","618914000","Manatee County","BRADENTON",34205,"8840","21-Suburb: Large",27.494847,-82.564795,1216,"1-Metropolitan Area",50248,2928.34
"3","MD","33968",2020,3663139490,261611378,554333453,0,2616173765,0,3671879459,0,3093834900,3195067624,"2400480","Montgomery County Public Schools","Maryland",165267,11289.73,"3473558000","3261751000",160564,11510.59,"3587838000","3183090000","Montgomery County","Rockville",20850,NA,"21-Suburb: Large",39.095191,-77.158219,2408,"1-Metropolitan Area",158231,11605.84
"4","NC","36539",2020,746287666,35655479,183778157,0,490843482,676022,328092055,0,517377178,508669063,"3700011","Cumberland County Board of Education","North Carolina",50750,3421.89,"511445000","515721000",49278,3434.3,"508036000","532708000","Cumberland County","Fayetteville",28306,NA,"12-City: Mid-size",35.0142,-78.896331,3709,"1-Metropolitan Area",48860,3516.85
"5","FL","69989",2020,931076698,85950164,608061187,0,52281715,0,2324325507,0,1165276481,1129321171,"1201560","District School Board of Pinellas County","Florida",99772,7379.84,"1112631000","1159835000",96068,6829.44,"1203245000","1231545000","Pinellas County","LARGO",33770,"3536","11-City: Large",27.914041,-82.793562,1213,"1-Metropolitan Area",95446,6007.53
"6","KY","33679",2020,1662666688,125861913,534348849,0,431036181,0,1188087252,0,1591239863,1572818250,"2102990","Jefferson County Board of Education","Kentucky",100348,6160.96,"1491611000","1564381000",95911,6236.39,"1599691000","1603292000","Jefferson County","Louisville",40218,NA,"11-City: Large",38.1995,-85.6851,2103,"1-Metropolitan Area",94393,6223.52
"7","FL","32402",2020,1278007845,115331940,486925058,0,50552528,0,1962717291,0,1102540344,1150757420,"1201080","The School District of Lee County","Florida",95613,5194.6,"1161742000","1103854000",94927,5156.15,"1185267000","1151329000","Lee County","FORT MYERS",33966,"1012","21-Suburb: Large",26.5997,-81.8536,1219,"1-Metropolitan Area",97264,5170.54
"8","FL","69706",2020,6325737000,332872000,1948945000,0,201343000,0,5663054000,0,4314370000,4120010000,"1200390","The School Board of Miami-Dade County","Florida",347307,18373,"4055452000","4111909000",334261,16758,"4324851000","4158104000","Miami-Dade County","MIAMI",33132,"1308","21-Suburb: Large",25.78893,-80.190942,1224,"1-Metropolitan Area",328589,17365
"9","CO","1237862",2020,3548501249,193615233,400400429,0,54122079,0,2454709948,0,1413151847,1560645403,"0803360","City And County of Denver School District No. 1","Colorado",92143,6149.47,"1588186000","1605362000",89081,6120.67,"1615429000","1593940000","Denver County","DENVER",80203,"2996","11-City: Large",39.74575,-104.985751,801,"1-Metropolitan Area",88911,6140.88
"10","FL","198253",2020,629910852,23003444,297815602,0,15687722,0,1311442682,0,709946823,795253071,"1201470","Osceola County District School Board","Florida",69925,4045.71,"783041000","728329000",68640,3925.91,"840959000","743210000","Osceola County","KISSIMMEE",34744,"4492","21-Suburb: Large",28.298868,-81.361335,1209,"1-Metropolitan Area",72427,3600.57
"11","IL","198265",2020,27536280000,1138117000,14127342000,0,2554892000,0,9604959000,0,8034274000,6953478000,"1709930","Chicago Board of Education","Illinois",347484,21943.44,"6933320000","7130321000",341382,NA,"7446508000","7481077000","Cook County","Chicago",60602,"4413","11-City: Large",41.882233,-87.628809,1707,"1-Metropolitan Area",329836,22797.43
"12","CA","146593",2020,6421488110,283424562,1449568000,0,135880213,0,5984680571,0,1875674718,1987911916,"0634320","San Diego Unified School District","California",102270,0,"2101817000","2309589000",97968,4266.88,"2239718000","2247111000","San Diego County","San Diego",92103,"2682","11-City: Large",32.754564,-117.147475,653,"1-Metropolitan Area",95233,4289.35
"13","HI","71050",2020,568157654,320641808,0,0,0,0,3455219474,0,3261774036,3449583662,"1500030","Hawaii Department of Education","Hawaii",181088,12220.77,"3396555000","3214490000",176441,12145.4,"3241890000","3115265000","Honolulu County","Honolulu",96813,NA,"21-Suburb: Large",21.309338,-157.855285,1501,"1-Metropolitan Area",173178,12026.2
"14","CA","146048",2020,1511591818,75662863,625815620,0,76877208,0,1385029429,0,740906139,699973014,"0609850","Corona-Norco Unified School District","California",52557,0,"695202000","710246000",51318,2062.96,"759981000","697555000","Riverside County","Norco",92860,"1903","12-City: Mid-size",33.922685,-117.561634,642,"1-Metropolitan Area",50889,2076.56
"15","CA","146154",2020,3034261964,204081966,942203000,0,1019190619,0,1701692842,0,1233813509,1166709424,"0614550","Fresno Unified School District","California",71265,0,"1163319000","1160647000",70088,2159.3,"1286872000","1219665000","Fresno County","Fresno",93721,"2287","11-City: Large",36.73666,-119.787071,616,"1-Metropolitan Area",69873,3548.96
"16","CA","146329",2020,29653109000,1251049000,7446273000,0,8578152000,0,21980711000,0,9320067000,9124800000,"0622710","Los Angeles Unified School District","California",483234,0,"9721115000","9632193000",460633,21872.95,"11112479000","9900601000","Los Angeles County","Los Angeles",90017,"1466","11-City: Large",34.056169,-118.257348,634,"1-Metropolitan Area",435958,21893.94
"17","TX","38895",2020,1028867238,78668996,176503815,0,204393433,0,1327396421,0,653022063,692323253,"4820340","Garland Independent School District","Texas",55701,3594.08,"662541000","617003000",53921,3609.3,"646979000","611815000","Dallas County","GARLAND",75042,"7108","21-Suburb: Large",32.90868,-96.683861,4805,"1-Metropolitan Area",53674,3448.14
"18","NC","36571",2020,1173118351,26838699,301635944,0,804006602,1114168,955169857,0,822101070,796869443,"3701920","Guilford County Board of Education","North Carolina",72682,4688.43,"788567000","787207000",70047,4770.13,"819880000","820562000","Guilford County","Greensboro",27401,NA,"11-City: Large",36.08087,-79.793191,3713,"1-Metropolitan Area",69173,4757.33
"19","CO","32045",2020,1545454919,82144302,864936787,0,42529387,0,1186675548,0,619988621,809862038,"0803450","Douglas County School District Re.1","Colorado",67305,3680.47,"855927000","854698000",62979,3664.71,"831121000","869311000","Douglas County","CASTLE ROCK",80108,NA,"21-Suburb: Large",39.375981,-104.859375,804,"1-Metropolitan Area",63596,3609.66
"20","FL","32425",2020,601902285,47248046,346916779,0,18813350,0,1044792429,0,666147076,682225811,"1201710","Seminole County Public Schools","Florida",68096,3571.49,"682448000","674976000",66226,3307.17,"724493000","669438000","Seminole County","SANFORD",32773,"7125","21-Suburb: Large",28.75788,-81.284129,1207,"1-Metropolitan Area",66729,3543.27
"21","FL","32396",2020,2502458869,130855672,1166977434,0,208572211,0,2877535861,0,2466616138,2451375686,"1200870","The School District of Hillsborough County","Florida",223305,13538.5,"2423595000","2479463000",218943,13710.99,"2563752000","2430968000","Hillsborough County","TAMPA",33602,"3502","21-Suburb: Large",27.949214,-82.452317,1214,"1-Metropolitan Area",224149,13001.82
"22","GA","32567",2020,1482624205,67196028,445614082,0,305628089,0,1426665055,0,608582855,619104806,"1302220","Forsyth County Board of Education","Georgia",50544,3078.1,"613976000","694258000",51152,3157.3,"648257000","694228000","Forsyth County","Cumming",30040,NA,"21-Suburb: Large",34.23248,-84.120841,1307,"1-Metropolitan Area",52757,3206.5
"23","MD","171323",2020,2428010000,98823000,137969000,0,2045949000,0,2243115000,0,2125318000,1955757000,"2400120","Board of Education of Baltimore County","Maryland",115038,7629.7,"2001257000","1948149000",111084,7821.41,"2000658000","1930683000","Baltimore County","Towson",21204,NA,"21-Suburb: Large",39.404025,-76.63021,2403,"1-Metropolitan Area",111136,7684.77
"24","NE","35480",2020,1787588000,128489000,848152000,0,24055000,0,1395333000,0,937158000,852021000,"3174820","Omaha City School District 1","Nebraska",53483,3498.07,"783830000","816217000",51914,3259.94,"765346000","990674000","Douglas County","OMAHA",68131,"2024","11-City: Large",41.267518,-95.960099,3102,"1-Metropolitan Area",51626,3445.22
"25","NV","35528",2020,7278369954,464414104,3186524832,0,281606000,0,7030148493,0,3532293031,3748080450,"3200060","Clark County School District","Nevada",328991,16490,"3780288000","3772124000",315646,14395,"3813021000","3820370000","Clark County","LAS VEGAS",89146,NA,"11-City: Large",36.145349,-115.211177,3201,"1-Metropolitan Area",315787,NA
"26","FL","196483",2020,510351766,23137850,212334986,0,26203755,0,1110021064,0,457213491,517943041,"1201740","St. Johns County School District","Florida",43628,2427.1,"485351000","466766000",44550,2445.77,"529241000","545492000","St. Johns County","ST AUGUSTINE",32084,"3633","41-Rural: Fringe",29.897871,-81.315877,1204,"1-Metropolitan Area",48032,2600.17
"27","MD","44313",2020,426185000,301124000,0,0,0,0,1749100000,0,1446826000,1711671000,"2400090","Baltimore City Public School System","Maryland",79187,4932.9,"1708612000","1647371000",77856,5063.13,"1672842000","1609484000","Baltimore city","Baltimore",21202,NA,"11-City: Large",39.312016,-76.613209,2407,"1-Metropolitan Area",77807,5109.6
"28","NC","196971",2020,895217484,39125474,213912827,0,605527697,785188,738393012,0,604705844,604938088,"3701500","Winston-Salem/Forsyth County Schools-Board of Education","North Carolina",54566,3765.57,"560848000","577002000",51843,3635.2,"581315000","624108000","Forsyth County","Winston Salem",27105,NA,"12-City: Mid-size",36.17996,-80.281211,3705,"1-Metropolitan Area",52681,3593.91
"29","CO","32036",2020,1931718440,90398684,1074427362,0,52826631,0,1155917605,0,569719633,770750774,"0802910","Cherry Creek School District No 5","Colorado",56228,3234.26,"782035000","782350000",54184,3367.93,"798786000","781829000","Arapahoe County","GREENWOOD VILLAGE",80111,"1394","11-City: Large",39.631056,-104.884328,806,"1-Metropolitan Area",53587,3194.09
"30","FL","32378",2020,600855011,50154053,296446043,0,5027106,0,1335775971,0,704647470,691047972,"1200330","Collier County District School Board","Florida",47834,2786.05,"670634000","653870000",46329,2713.75,"691957000","656509000","Collier County","NAPLES",34109,"919","21-Suburb: Large",26.220768,-81.758198,1219,"1-Metropolitan Area",47617,2847.74
"31","UT","39313",2020,889548468,94121474,181144594,0,0,0,1323970264,0,694223529,728477766,"4900210","Davis School District","Utah",74773,3055.61,"714113000","703172000",72082,NA,"740335000","705134000","Davis County","Farmington",84025,NA,"21-Suburb: Large",40.980796,-111.886593,4902,"1-Metropolitan Area",74486,3061.45
"32","TX","38875",2020,2771800196,142173875,182078056,0,195016124,0,2305335478,0,832675941,820388165,"4820010","Frisco Independent School District","Texas",62705,4279.4,"733330000","800767000",63493,4388.91,"741665000","877989000","Collin County","FRISCO",75035,NA,"21-Suburb: Large",33.124631,-96.796882,4803,"1-Metropolitan Area",65825,4407.63
"33","TX","38929",2020,1635139177,162416367,165283406,0,214670423,0,1645134865,0,709583644,713146693,"4818300","El Paso Independent School District","Texas",55253,3828.65,"688716000","871968000",50661,3730.52,"676551000","877310000","El Paso County","EL PASO",79902,NA,"11-City: Large",31.765784,-106.491527,4816,"1-Metropolitan Area",50769,3511.69
"34","TX","38877",2020,1471969476,271048351,174271009,0,198353587,0,1850980859,0,872168012,929400425,"4835100","Plano Independent School District","Texas",52629,3855.13,"864934000","825048000",50154,3786.89,"883766000","793295000","Collin County","PLANO",75075,"7524","11-City: Large",33.018521,-96.746043,4803,"1-Metropolitan Area",49400,3638.01
"35","TX","38981",2020,1730907415,114330645,206674704,0,244402754,0,1768391565,0,838250145,850679006,"4807710","Aldine Independent School District","Texas",67259,4200.14,"808024000","771454000",63302,4243.82,"884055000","818824000","Harris County","HOUSTON",77073,NA,"21-Suburb: Large",30.003612,-95.389625,4818,"1-Metropolitan Area",61633,3990.7
"36","TX","38892",2020,4757887523,430163655,595195671,0,690114814,0,4902079698,0,2185683004,2323118295,"4816230","Dallas Independent School District","Texas",153861,9989.46,"2222969000","2240796000",145113,10265.92,"2213643000","2422714000","Dallas County","DALLAS",75231,NA,"11-City: Large",32.87655,-96.768441,4832,"1-Metropolitan Area",143558,9873.5
"37","TX","38988",2020,4918438580,441644690,594268532,0,716497750,0,6592207393,0,2707336003,2881150552,"4823640","Houston Independent School District","Texas",210061,11770.28,"2678991000","2751715000",196943,11750.11,"2622407000","2620063000","Harris County","HOUSTON",77092,"8501","11-City: Large",29.802507,-95.454267,4802,"1-Metropolitan Area",194607,10982.91
"38","TX","38990",2020,2787669152,108378177,223796599,0,281189550,0,2801085701,0,1072886090,1089968833,"4825170","Katy Independent School District","Texas",83423,5602.56,"1047002000","1069512000",84176,5881.77,"1079966000","1088519000","Fort Bend County","KATY",77494,"1057","21-Suburb: Large",29.7803,-95.8327,4822,"1-Metropolitan Area",88368,6080.62
"39","TX","38940",2020,1939809685,215688777,206732032,0,270110960,0,1678760428,0,1063607180,971061938,"4819650","Fort Bend Independent School District","Texas",77756,4876.16,"907541000","1060750000",76735,5054.75,"920232000","1165638000","Fort Bend County","SUGAR LAND",77479,"2308","21-Suburb: Large",29.58887,-95.622211,4822,"1-Metropolitan Area",77545,5019.98
"40","TX","39189",2020,1643859113,109491434,202083399,0,231749147,0,1429197705,0,756774370,759674721,"4808700","Arlington Independent School District","Texas",59532,4039.63,"723448000","733561000",56840,4114.71,"735050000","780567000","Tarrant County","ARLINGTON",76011,NA,"11-City: Large",32.70982,-97.124471,4806,"1-Metropolitan Area",56311,3923.88
"41","TX","39105",2020,1873250052,72430287,169824823,0,205866828,0,1771154694,0,730581396,742306470,"4815000","Conroe Independent School District","Texas",64799,3930.12,"712178000","715341000",64563,4110.6,"769389000","825633000","Montgomery County","CONROE",77304,NA,"12-City: Mid-size",30.320576,-95.486046,4808,"1-Metropolitan Area",67761,4239.57
"42","TX","39211",2020,2497995416,804135841,118517031,0,302775488,0,2718320138,0,1672957566,1757890245,"4808940","Austin Independent School District","Texas",80911,5484.07,"1698034000","1951250000",74871,5508.22,"1634054000","2001453000","Travis County","AUSTIN",78704,NA,"11-City: Large",30.218592,-97.753379,4835,"1-Metropolitan Area",74602,5238.78
"43","TX","39194",2020,2010513068,234239862,305150969,0,352419124,0,2049000000,0,1074969265,1118553390,"4819700","Fort Worth Independent School District","Texas",82891,5569.24,"1029305000","1111041000",76858,5488.23,"1140461000","1268455000","Tarrant County","FORT WORTH",76107,"3010","11-City: Large",32.760407,-97.360455,4812,"1-Metropolitan Area",74850,5069.52
"44","UT","39321",2020,604234008,83865317,214554003,0,1982613,0,1205457435,0,675672751,696323176,"4900360","Granite School District","Utah",66276,2810.25,"679625000","707146000",63430,NA,"694821000","723646000","Salt Lake County","SALT LAKE CITY",84115,NA,"21-Suburb: Large",40.716144,-111.889344,4904,"1-Metropolitan Area",62544,2785.77
"45","UT","39322",2020,505146280,88685721,154946340,0,2387087,0,1611091159,0,538949305,534505057,"4900420","Jordan School District","Utah",57771,2535.29,"513408000","566852000",57267,NA,"553262000","571457000","Salt Lake County","WEST JORDAN",84084,NA,"21-Suburb: Large",40.61707,-111.983991,4904,"1-Metropolitan Area",59363,2632.94
"46","TX","39253",2020,1540696369,104453665,124392763,0,165202836,0,1684889588,0,621266430,633743617,"4838080","Round Rock Independent School District","Texas",50953,3537.26,"592934000","595621000",48302,3562.27,"581534000","730026000","Williamson County","ROUND ROCK",78681,"4941","12-City: Mid-size",30.511455,-97.697025,4831,"1-Metropolitan Area",47167,3450.84
"47","FL","68696",2020,4251168000,387059000,1419517000,0,216322000,0,4122013000,0,3132393000,3041050000,"1200180","The School Board of Broward County","Florida",269172,14111.43,"3003196000","3148988000",260235,13737.49,"2979069000","3179172000","Broward County","FORT LAUDERDALE",33301,"3125","21-Suburb: Large",26.114594,-80.139472,1222,"1-Metropolitan Area",256037,13341.46
"48","WA","39643",2020,123970331,79164626,295248620,0,0,0,618225207,0,1188817592,1263718387,"5307710","Seattle School District No.1","Washington",55986,3238.68,"1218512000","1131647000",53973,3377.56,"1302978000","1114357000","King County","SEATTLE",98134,"1165","11-City: Large",47.580836,-122.330963,5307,"1-Metropolitan Area",51443,3110.54
"49","WI","40012",2020,1413229033,81828323,187257004,76455593,762277112,0,945350000,0,1268266817,1208173119,"5509600","Milwaukee Public Schools","Wisconsin",74683,4388.34,"1210952000","1211356000",71510,4345.15,"1300595000","1251877000","Milwaukee County","Milwaukee",53208,"2627","11-City: Large",43.04813,-87.979731,5504,"1-Metropolitan Area",69115,4269.89
"50","FL","70626",2020,791182331,31114348,338806631,0,18586161,0,1416147346,0,669777965,663782752,"1201920","Volusia County District School Board","Florida",63009,3844.04,"671121000","668962000",61088,3664.93,"717538000","673085000","Volusia County","DELAND",32720,"4207","13-City: Small",29.030183,-81.308481,1206,"1-Metropolitan Area",62666,3782.92
"51","MD","41713",2020,1031229897,101872185,50666596,0,849712337,0,1382725812,0,1112467221,1082067035,"2400420","Howard County Board of Education","Maryland",58868,4324.5,"1085574000","1054436000",57293,4241,"1158890000","1083360000","Howard County","Ellicott City",21042,NA,"21-Suburb: Large",39.235639,-76.889606,2407,"1-Metropolitan Area",57325,4258.4
"52","GA","105280",2020,2301940046,165274097,1122765085,0,770250780,0,2265973000,0,1431948985,1466773135,"1301740","Dekalb County Board of Education","Georgia",98800,6892.6,"1480388000","1415756000",93470,7108.9,"1542598000","1363065000","DeKalb County","Decatur",30032,NA,"21-Suburb: Large",33.832661,-84.194543,1304,"1-Metropolitan Area",93473,6676.1
"53","SC","43341",2020,2050410740,62734771,583236524,0,501590758,0,2099747035,0,794107999,895123983,"4501440","Charleston County School District","South Carolina",50299,3462.4,"973407000","952265000",48330,3586.55,"1040191000","984936000","Charleston County","Charleston",29401,NA,"12-City: Mid-size",32.7879,-79.930751,4501,"1-Metropolitan Area",49331,3822.48
"54","GA","48791",2020,916357252,91483354,467584423,0,347674422,0,1081660841,0,619302155,655624753,"1301230","Clayton County Board of Education","Georgia",54424,3151.5,"659093000","646512000",52149,3292.6,"711007000","661256000","Clayton County","Jonesboro",30236,NA,"21-Suburb: Large",33.53653,-84.357071,1313,"1-Metropolitan Area",52335,3259.1
"55","GA","70971",2020,2217236000,182092000,1158513000,0,755723000,0,2256622000,0,1465479000,1517922000,"1301290","Cobb County School District","Georgia",112097,7361.8,"1504214000","1528033000",107379,7347.7,"1577457000","1456244000","Cobb County","Marietta",30061,NA,"21-Suburb: Large",33.938441,-84.538051,1311,"1-Metropolitan Area",106970,7331.5
"56","GA","70961",2020,1457874182,94544551,926762156,0,348020497,0,1762576220,0,957538019,1064997400,"1300120","School District Atlanta Public Schools","Georgia",52416,4025.5,"1230648000","1032605000",51012,4099.2,"1127638000","1041310000","Fulton County","Atlanta",30335,NA,"11-City: Large",33.748278,-84.392176,1305,"1-Metropolitan Area",49994,4076.9
"57","NM","35931",2020,2397848787,105373655,1284568723,0,363064860,0,2037466457,0,572543455,1131467933,"3500060","Albuquerque Municipal School District No. 12","New Mexico",88312,6183.24,"1228951000","1147156000",83031,6050.39,"1169123000","1201928000","Bernalillo County","ALBUQUERQUE",87110,NA,"11-City: Large",35.102965,-106.572756,3501,"1-Metropolitan Area",81762,6029.47
"58","MD","41282",2020,2182951319,195973167,64243619,0,1859904000,0,1779032051,0,1405044746,1481594562,"2400060","Anne Arundel County Board of Education","Maryland",84984,5787,"1457055000","1501275000",83044,5957.47,"1469198000","1465525000","Anne Arundel County","Annapolis",21401,NA,"21-Suburb: Large",38.97612,-76.559401,2404,"1-Metropolitan Area",83163,6013.61
"59","SC","38341",2020,2523154282,143896070,895763981,0,760663343,0,1696182521,0,940707649,954914212,"4502310","The School District of Greenville County","South Carolina",77302,5003.8,"1004916000","930194000",74094,4990.38,"1058506000","984000000","Greenville County","Greenville",29601,NA,"21-Suburb: Large",34.8439,-82.396061,4504,"1-Metropolitan Area",76939,5133.93
"60","TX","38984",2020,4145823676,228162072,354920841,0,416699640,0,3632272491,0,1433416147,1382684090,"4816110","Cypress-Fairbanks Independent School District","Texas",117446,7375.24,"1313144000","1401690000",114881,7659.35,"1391872000","1582191000","Harris County","HOUSTON",77065,"4208","21-Suburb: Large",29.922756,-95.583673,4802,"1-Metropolitan Area",117217,7682.15
"61","TX","38820",2020,3032820362,109812382,330423641,0,386107674,0,2963173954,0,1297554866,1322943080,"4833120","Northside Independent School District","Texas",107817,7001.95,"1281221000","1325003000",103151,6844.94,"1223549000","1344525000","Bexar County","SAN ANTONIO",78238,"1699","11-City: Large",29.490785,-98.601414,4820,"1-Metropolitan Area",102377,6792.17
"62","PA","87525",2020,8193140034,511753446,3571478000,0,179300000,0,3353252480,0,3931250090,3861891368,"4218990","School District of Philadelphia","Pennsylvania",130617,7789.23,"3705298000","3967179000",124111,7855.67,"3812902000","3899835000","Philadelphia County","Philadelphia",19130,NA,"11-City: Large",39.96101,-75.162641,4203,"1-Metropolitan Area",118053,7968.97
"63","NC","36608",2020,2559051000,136582000,622449000,0,1688234000,2319000,2456316000,0,1700351000,1799355000,"3702970","Charlotte-Mecklenburg Board of Education","North Carolina",149845,9183.03,"1629822000","1928007000",142733,9284.44,"1676922000","2079414000","Mecklenburg County","Charlotte",28208,NA,"11-City: Large",35.187118,-80.889273,3712,"1-Metropolitan Area",143244,9030.26
"64","NV","35535",2020,2191603737,94937135,716187044,0,196695810,0,1704169634,0,781154443,770757665,"3200480","Washoe County School District","Nevada",67301,3875,"794783000","914736000",64584,3994,"811167000","913412000","Washoe County","RENO",89520,NA,"11-City: Large",39.53761,-119.810017,3202,"1-Metropolitan Area",65538,NA
"65","UT","39330",2020,1059030997,146552046,185909219,0,66222363,0,1706320468,0,768957816,758243762,"4900030","Alpine School District","Utah",83540,3253.9,"737336000","851034000",82800,NA,"803172000","820336000","Utah County","American Fork",84003,NA,"21-Suburb: Large",40.388401,-111.79653,4903,"1-Metropolitan Area",86275,3308.62
"66","CA","146325",2020,3148525800,182972369,922386344,0,425718817,0,2658431286,0,1123576999,1136009100,"0622500","Long Beach Unified School District","California",71712,0,"1173998000","1215628000",69413,2808.82,"1266461000","1163778000","Los Angeles County","Long Beach",90810,"1839","11-City: Large",33.82892,-118.213761,647,"1-Metropolitan Area",67292,2738.24
"67","TX","44074",2020,1216359655,98535554,121906407,0,149154126,0,1262462076,0,583818039,574949495,"4823910","Humble Independent School District","Texas",45078,2931.02,"539996000","572059000",45528,3123.61,"592505000","715739000","Harris County","HUMBLE",77338,NA,"21-Suburb: Large",30.012879,-95.267822,4802,"1-Metropolitan Area",48112,3200.11
"68","CO","32057",2020,2353743121,193639125,1347298359,0,66246238,0,1676185911,0,731016376,1017567920,"0804800","Jefferson County School District No R-1","Colorado",84078,4726.72,"1111695000","1118672000",80099,4700.91,"1066060000","1181318000","Jefferson County","GOLDEN",80401,"1","21-Suburb: Large",39.73862,-105.164489,807,"1-Metropolitan Area",76904,4722.6
"69","CA","146106",2020,1218599815,0,749359000,0,11770913,0,1116520925,0,887739046,841645710,"0612330","Elk Grove Unified School District","California",63660,0,"838162000","860041000",63157,2722.23,"940531000","877050000","Sacramento County","Elk Grove",95624,"1801","21-Suburb: Large",38.41158,-121.373061,607,"1-Metropolitan Area",62229,2763.54
"70","TX","38819",2020,2132074073,113954179,184611924,0,237167621,0,1972781572,0,836862448,803857410,"4832940","North East Independent School District","Texas",64539,4255.59,"759969000","769730000",60483,4224.64,"773233000","713563000","Bexar County","SAN ANTONIO",78217,NA,"11-City: Large",29.521666,-98.456886,4821,"1-Metropolitan Area",59830,4001.53
"71","FL","98989",2020,1056455681,88624854,501853478,0,33902309,0,1655425541,0,1118958295,1149637602,"1201590","School District of Polk County","Florida",102952,5856,"1214768000","1182799000",100495,5865,"1186101000","1295313000","Polk County","BARTOW",33830,"7124","22-Suburb: Mid-size",27.87546,-81.846336,1217,"1-Metropolitan Area",105422,5927
"72","FL","102323",2020,2680621894,200205542,1128084763,0,58851299,0,6833017932,0,2518940161,2676919286,"1201440","Orange County District School Board","Florida",208875,11946,"2658681000","2665506000",199089,11757,"2801991000","2627445000","Orange County","ORLANDO",32801,"1129","21-Suburb: Large",28.55013,-81.385021,1210,"1-Metropolitan Area",203224,11386
"73","NC","36675",2020,2749372028,81754128,691000187,0,1855820546,2555383,3964607742,0,1818653565,1970695735,"3704720","Wake County Board of Education","North Carolina",163404,10449.95,"1680930000","1935687000",159802,10515.93,"1709851000","1903899000","Wake County","Cary",27518,"9227","11-City: Large",35.754138,-78.736509,3704,"1-Metropolitan Area",160099,10961.49
"74","TX","38905",2020,2016853986,99441710,159467259,0,183776610,0,2027836981,0,675866265,752269010,"4827300","Lewisville Independent School District","Texas",52189,3605.73,"735535000","870650000",49361,3691.7,"694752000","817532000","Denton County","LEWISVILLE",75067,"2616","21-Suburb: Large",33.044284,-97.035084,4826,"1-Metropolitan Area",49205,3752.34
"75","TX","38993",2020,1358873648,87775873,209167194,0,237273584,0,1397318316,0,713080606,681880739,"4834320","Pasadena Independent School District","Texas",52878,3736.03,"648851000","656620000",50614,3752.34,"671489000","654920000","Harris County","PASADENA",77502,NA,"21-Suburb: Large",29.678147,-95.191679,4829,"1-Metropolitan Area",49326,3828.17
"76","VA","1250804",2020,1674258721,190203621,993580040,0,403737216,0,2446157187,0,1461289718,1497874074,"5102250","Loudoun County Public Schools","Virginia",83606,5995.09,"1382367000","1493054000",81066,6114.58,"1508890000","1533826000","Loudoun County","Ashburn",20148,NA,"21-Suburb: Large",39.0337,-77.517751,5110,"1-Metropolitan Area",81131,5924
"77","GA","70979",2020,1976650177,147758512,1091755582,0,660783856,0,2736788000,0,1317115866,1409931971,"1302280","Fulton County Board of Education","Georgia",93897,6364.3,"1444142000","1360735000",90300,6261.2,"1425565000","1326695000","Fulton County","Atlanta",30315,NA,"21-Suburb: Large",33.68066,-84.414261,1305,"1-Metropolitan Area",90355,6167.3
"78","CA","146595",2020,2652780917,90091449,836406746,0,782068572,0,2122669061,0,1306963214,1290210104,"0634410","San Francisco Unified School District","California",52811,0,"1171190000","1189503000",51790,2501.58,"1228255000","1161029000","San Francisco County","San Francisco",94102,"5207","11-City: Large",37.779253,-122.422153,612,"1-Metropolitan Area",49204,2547.13
"79","AZ","30554",2020,897959189,70493673,468531459,0,0,0,948737617,0,618205248,644754580,"0404970","Mesa Unified School District No.4","Arizona",62703,3274.31,"630987000","619835000",57956,3321.27,"704867000","681325000","Maricopa County","MESA",85201,"7422","11-City: Large",33.4147,-111.829291,409,"1-Metropolitan Area",58859,3476.15
"80","LA","76062",2020,1465097782,71202458,538799170,0,625990594,0,761926059,0,682745988,670081371,"2200840","Jefferson Parish Public School System","Louisiana",49862,2362.9,"671932000","633269000",48160,2302.73,"730466000","665419000","Jefferson Parish","Harvey",70058,"3585","21-Suburb: Large",29.8864,-90.055,2202,"1-Metropolitan Area",46896,2186.31
"81","MI","161679",2020,2022392486,57658500,0,0,0,0,48286458,0,97774688,176048439,"2601103","Detroit Community Schools","Michigan",50644,3106.83,"882259000","832841000",48782,3074.53,"932712000","872308000","Wayne County","DETROIT",48202,"3085","11-City: Large",42.36924,-83.076781,2613,"1-Metropolitan Area",48536,3143.83
"82","FL","165645",2020,1094293954,43887020,559189287,0,33766979,0,1356038350,0,1334173631,1315060542,"1200480","Duval County Public Schools","Florida",130279,6851,"1329442000","1282135000",126815,6539,"1436463000","1354660000","Duval County","JACKSONVILLE",32207,"8152","11-City: Large",30.317393,-81.650348,1204,"1-Metropolitan Area",128948,7126
"83","AL","1017229",2020,1056213930,43271587,481601000,0,214694867,0,810156898,0,557351638,613625515,"0102370","Mobile County Board of School Commissioners","Alabama",53941,2973.4,"609296000","582822000",52460,2960.79,"675221000","623151000","Mobile County","Mobile",36618,"69","12-City: Mid-size",30.718638,-88.219762,101,"1-Metropolitan Area",52614,2608.55
"84","VA","1267423",2020,602815832,48179172,462836320,0,81756137,0,393231084,0,574231130,610289547,"5101890","Henrico County School Board","Virginia",51786,3030.57,"704381000","666541000",50191,2938.87,"760463000","735065000","Henrico County","Henrico",23223,"420","21-Suburb: Large",37.5416,-77.3823,5104,"1-Metropolitan Area",49991,2893
"85","MD","196828",2020,3459634368,261451174,186890787,0,2858119000,0,1976533458,0,2465093450,2405571401,"2400510","Prince Georgeâ€™S County Public Schools","Maryland",135952,9309.51,"2517293000","2393113000",131646,9368.2,"2646083000","2577578000","Prince George's County","Upper Marlboro",20772,NA,"21-Suburb: Large",38.815333,-76.759758,2405,"1-Metropolitan Area",128770,9274
"86","VA","1265776",2020,985168847,98566284,678825000,0,152746000,0,825304983,0,934488801,985726201,"5103840","School Board of The City of Virginia Beach","Virginia",68706,4244.49,"875527000","932013000",65612,4354.66,"929419000","936164000","Virginia Beach city","Virginia Beach",23456,"6038","11-City: Large",36.751983,-76.059624,5102,"1-Metropolitan Area",65450,4238
"87","TN","87787",2020,958891499,67233887,181063,190965425,879359591,0,1548452567,0,1162335680,1336828018,"4700148","Board of Education of Shelby County","Tennessee",113198,6897,"1347179000","1395085000",110780,6546.09,"1385982000","1382789000","Shelby County","Memphis",38112,NA,"11-City: Large",35.130137,-89.975672,4709,"1-Metropolitan Area",105596,6694.54
"88","TN","107389",2020,194241342,54795278,NA,56254755,137665254,NA,872748668,NA,443132101,444774269,"4703690","Rutherford County Schools","Tennessee",47458,3083.9,"461443000","493333000",47186,3008.05,"501384000","563614000","Rutherford County","Murfreesboro",37128,NA,"21-Suburb: Large",35.812086,-86.403053,4704,"1-Metropolitan Area",49253,3082.8
"89","VA","1267422",2020,63252560,0,20311386,0,0,0,174000000,0,659875816,659875816,"5100840","Chesterfield County School Board","Virginia",62614,3970.22,"717691000","798770000",60840,4212.09,"757010000","800538000","Chesterfield County","Chesterfield",23832,NA,"21-Suburb: Large",37.37668,-77.503361,5104,"1-Metropolitan Area",62445,4149
"90","FL","93779",2020,970289235,92412721,393361434,0,17244106,0,1149360306,0,809117325,802974791,"1200150","Brevard District School Board County","Florida",73962,4515.1,"800729000","791424000",70996,4397.07,"834159000","780295000","Brevard County","VIERA",32940,"6601","21-Suburb: Large",28.248696,-80.736704,1208,"1-Metropolitan Area",72497,4433.3
"91","FL","93789",2020,3401701000,193035000,1151170000,0,199429000,0,4514995000,0,2568945000,2551761000,"1201500","The School District of Palm Beach County","Florida",194675,11882.84,"2591858000","2555723000",187057,11696.46,"2744547000","2522461000","Palm Beach County","WEST PALM BEACH",33406,"5869","21-Suburb: Large",26.64925,-80.093741,1221,"1-Metropolitan Area",187943,11554.7
"92","GA","70981",2020,4534969007,240647238,1851016703,0,1187241718,0,3437438511,0,2326752639,2365656996,"1302550","Gwinnett County Board of Education","Georgia",180589,11429,"2354981000","2212800000",177401,11361.3,"2344890000","2230587000","Gwinnett County","Lawrenceville",30045,NA,"21-Suburb: Large",34.016948,-84.057792,1307,"1-Metropolitan Area",179581,11746.5
"93","TN","107203",2020,133188,133188,0,0,0,0,0,0,6178324,6536060,"4703180","Metropolitan Nashville Public Schools","Tennessee",85588,5529.6,"1259031000","1151304000",80494,5245.5,"1508635000","1215256000","Davidson County","Nashville",37204,NA,"11-City: Large",36.1219,-86.766811,4705,"1-Metropolitan Area",80381,4856.29
"94","TX","38991",2020,1688085132,93750833,171536152,0,192705677,0,1676612422,0,572606002,622051034,"4825740","Klein Independent School District","Texas",54096,3530.5,"594459000","555899000",52824,3617.09,"629979000","618854000","Harris County","KLEIN",77379,"3299","21-Suburb: Large",30.04787,-95.533248,4802,"1-Metropolitan Area",53294,3653.1
"95","VA","1250808",2020,1241056033,149774305,0,880640955,0,159352777,2208797405,0,1290526578,1408855587,"5103130","Prince William County Public Schools","Virginia",92237,5696.94,"1302817000","1321655000",89548,5650.41,"1425919000","1314351000","Prince William County","Manassas",20112,NA,"21-Suburb: Large",38.63614,-77.434841,5101,"1-Metropolitan Area",90070,5631
"96","TN","107065",2020,131523307,0,15036000,0,29575244,0,975690620,0,609489608,601675790,"4702220","Knox County Schools","Tennessee",61545,3925.3,"604658000","596329000",59169,3931.42,"653066000","611632000","Knox County","Knoxville",37902,NA,"21-Suburb: Large",35.96136,-83.915571,4702,"1-Metropolitan Area",60426,4016.73
"97","VA","1267421",2020,4569398476,175684715,3769693854,0,435474585,0,3191956305,0,3270489937,3287156083,"5101260","Fairfax County Public Schools","Virginia",188887,13132.45,"3154609000","3319353000",180028,13149.81,"3288664000","3286505000","Fairfax County","Falls Church",22042,NA,"21-Suburb: Large",38.868583,-77.22411,5111,"1-Metropolitan Area",178479,13199
"98","MA","1267424",2020,0,0,975708000,0,1263944236,0,0,0,1874077000,1874077000,"2502790","Boston City School","Massachusetts",50480,4406.39,"1550952000","1763526000",48112,4595.49,"1654669000","1919037000","Suffolk County","Roxbury",2119,NA,"11-City: Large",42.330141,-71.083712,2507,"1-Metropolitan Area",46169,4256.01
"99","MD","33968",2021,3461762167,257211868,464686817,0,2499298431,0,3738822073,0,3166505574,3110988252,"2400480","Montgomery County Public Schools","Maryland",165267,11289.73,"3473558000","3261751000",160564,11510.59,"3587838000","3183090000","Montgomery County","Rockville",20850,NA,"21-Suburb: Large",39.095191,-77.158219,2408,"1-Metropolitan Area",158231,11605.84
"100","FL","148148",2021,1274076351,72047702,475673705,797622,106858334,0,1715536744,0,902757945,895626256,"1201530","Pasco County District School Board","Florida",76661,4650.93,"819581000","807965000",77125,4790.18,"888274000","928434000","Pasco County","LAND O LAKES",34638,"2826","21-Suburb: Large",28.262694,-82.477158,1212,"1-Metropolitan Area",81157,4711.88
"101","FL","148130",2021,710759791,56493050,341334666,0,17853453,0,1240715461,0,650260175,664446929,"1201230","Manatee County District School Board","Florida",50088,2945.63,"606069000","604864000",49181,2856.84,"642636000","618914000","Manatee County","BRADENTON",34205,"8840","21-Suburb: Large",27.494847,-82.564795,1216,"1-Metropolitan Area",50248,2928.34
"102","NC","36539",2021,687684162,35285853,204652114,0,411166846,730423,334873959,0,481496930,513093146,"3700011","Cumberland County Board of Education","North Carolina",50750,3421.89,"511445000","515721000",49278,3434.3,"508036000","532708000","Cumberland County","Fayetteville",28306,NA,"12-City: Mid-size",35.0142,-78.896331,3709,"1-Metropolitan Area",48860,3516.85
"103","MD","171323",2021,2788047000,104582000,116025000,0,2420620000,0,2315816000,0,2163344000,1948422000,"2400120","Board of Education of Baltimore County","Maryland",115038,7629.7,"2001257000","1948149000",111084,7821.41,"2000658000","1930683000","Baltimore County","Towson",21204,NA,"21-Suburb: Large",39.404025,-76.63021,2403,"1-Metropolitan Area",111136,7684.77
"104","FL","69989",2021,1143065408,104727059,720789781,0,58611005,0,2481173811,0,1243482809,1243306424,"1201560","District School Board of Pinellas County","Florida",99772,7379.84,"1112631000","1159835000",96068,6829.44,"1203245000","1231545000","Pinellas County","LARGO",33770,"3536","11-City: Large",27.914041,-82.793562,1213,"1-Metropolitan Area",95446,6007.53
"105","KY","33679",2021,1717633170,146227055,560507654,0,440641271,0,1247747207,0,1695673893,1697883445,"2102990","Jefferson County Board of Education","Kentucky",100348,6160.96,"1491611000","1564381000",95911,6236.39,"1599691000","1603292000","Jefferson County","Louisville",40218,NA,"11-City: Large",38.1995,-85.6851,2103,"1-Metropolitan Area",94393,6223.52
"106","FL","69706",2021,6749546000,344323000,2434673000,0,269536000,0,5860029000,0,4354450000,4434150000,"1200390","The School Board of Miami-Dade County","Florida",347307,18373,"4055452000","4111909000",334261,16758,"4324851000","4158104000","Miami-Dade County","MIAMI",33132,"1308","21-Suburb: Large",25.78893,-80.190942,1224,"1-Metropolitan Area",328589,17365
"107","FL","32402",2021,1306480223,132139647,567716145,0,51818919,0,2045697039,0,1134216279,1211807028,"1201080","The School District of Lee County","Florida",95613,5194.6,"1161742000","1103854000",94927,5156.15,"1185267000","1151329000","Lee County","FORT MYERS",33966,"1012","21-Suburb: Large",26.5997,-81.8536,1219,"1-Metropolitan Area",97264,5170.54
"108","HI","71050",2021,574865545,318550496,0,0,0,0,3722990411,0,3083226635,3314625554,"1500030","Hawaii Department of Education","Hawaii",181088,12220.77,"3396555000","3214490000",176441,12145.4,"3241890000","3115265000","Honolulu County","Honolulu",96813,NA,"21-Suburb: Large",21.309338,-157.855285,1501,"1-Metropolitan Area",173178,12026.2
"109","NC","36571",2021,1108660665,30725458,344503647,0,691599796,1704037,931228104,0,825832880,833573949,"3701920","Guilford County Board of Education","North Carolina",72682,4688.43,"788567000","787207000",70047,4770.13,"819880000","820562000","Guilford County","Greensboro",27401,NA,"11-City: Large",36.08087,-79.793191,3713,"1-Metropolitan Area",69173,4757.33
"110","FL","196483",2021,610942671,52709289,263530874,0,27886089,0,1242759396,0,496963437,551092059,"1201740","St. Johns County School District","Florida",43628,2427.1,"485351000","466766000",44550,2445.77,"529241000","545492000","St. Johns County","ST AUGUSTINE",32084,"3633","41-Rural: Fringe",29.897871,-81.315877,1204,"1-Metropolitan Area",48032,2600.17
"111","CO","32045",2021,1547646681,44804655,936328834,0,34048351,0,1186188284,0,477799993,786412795,"0803450","Douglas County School District Re.1","Colorado",67305,3680.47,"855927000","854698000",62979,3664.71,"831121000","869311000","Douglas County","CASTLE ROCK",80108,NA,"21-Suburb: Large",39.375981,-104.859375,804,"1-Metropolitan Area",63596,3609.66
"112","FL","32425",2021,645371995,49795591,409745367,0,21740202,0,1091193393,0,704741209,733138761,"1201710","Seminole County Public Schools","Florida",68096,3571.49,"682448000","674976000",66226,3307.17,"724493000","669438000","Seminole County","SANFORD",32773,"7125","21-Suburb: Large",28.75788,-81.284129,1207,"1-Metropolitan Area",66729,3543.27
"113","FL","32396",2021,2665346000,115738000,1414051000,0,204024000,0,3053351000,0,2470127000,2594106000,"1200870","The School District of Hillsborough County","Florida",223305,13538.5,"2423595000","2479463000",218943,13710.99,"2563752000","2430968000","Hillsborough County","TAMPA",33602,"3502","21-Suburb: Large",27.949214,-82.452317,1214,"1-Metropolitan Area",224149,13001.82
"114","GA","32567",2021,1580229755,63963227,514807347,0,378154509,0,1442452593,0,649984177,648222869,"1302220","Forsyth County Board of Education","Georgia",50544,3078.1,"613976000","694258000",51152,3157.3,"648257000","694228000","Forsyth County","Cumming",30040,NA,"21-Suburb: Large",34.23248,-84.120841,1307,"1-Metropolitan Area",52757,3206.5
"115","MD","44313",2021,441281000,323973000,0,0,0,0,1926747000,0,1512821000,1672835000,"2400090","Baltimore City Public School System","Maryland",79187,4932.9,"1708612000","1647371000",77856,5063.13,"1672842000","1609484000","Baltimore city","Baltimore",21202,NA,"11-City: Large",39.312016,-76.613209,2407,"1-Metropolitan Area",77807,5109.6
"116","NC","196971",2021,871012617,37856969,247807799,0,540312747,882663,782095442,0,594692776,649542063,"3701500","Winston-Salem/Forsyth County Schools-Board of Education","North Carolina",54566,3765.57,"560848000","577002000",51843,3635.2,"581315000","624108000","Forsyth County","Winston Salem",27105,NA,"12-City: Mid-size",36.17996,-80.281211,3705,"1-Metropolitan Area",52681,3593.91
"117","TX","38895",2021,915494993,76686724,162986411,0,156820871,0,1277851051,0,681441966,688585255,"4820340","Garland Independent School District","Texas",55701,3594.08,"662541000","617003000",53921,3609.3,"646979000","611815000","Dallas County","GARLAND",75042,"7108","21-Suburb: Large",32.90868,-96.683861,4805,"1-Metropolitan Area",53674,3448.14
"118","NE","35480",2021,1915307000,114746000,833386000,0,28475000,0,1542182000,0,923968000,868567000,"3174820","Omaha City School District 1","Nebraska",53483,3498.07,"783830000","816217000",51914,3259.94,"765346000","990674000","Douglas County","OMAHA",68131,"2024","11-City: Large",41.267518,-95.960099,3102,"1-Metropolitan Area",51626,3445.22
"119","NV","35528",2021,7397686653,523387980,3246664848,0,341397008,0,7260377355,0,3587025211,3773255454,"3200060","Clark County School District","Nevada",328991,16490,"3780288000","3772124000",315646,14395,"3813021000","3820370000","Clark County","LAS VEGAS",89146,NA,"11-City: Large",36.145349,-115.211177,3201,"1-Metropolitan Area",315787,NA
"120","CO","1237862",2021,3816120556,159407766,395426442,0,40625946,0,2824656042,0,1485550979,1607637417,"0803360","City And County of Denver School District No. 1","Colorado",92143,6149.47,"1588186000","1605362000",89081,6120.67,"1615429000","1593940000","Denver County","DENVER",80203,"2996","11-City: Large",39.74575,-104.985751,801,"1-Metropolitan Area",88911,6140.88
"121","FL","198253",2021,738716305,32361352,347343200,0,16582352,0,1516640595,0,737330037,854416743,"1201470","Osceola County District School Board","Florida",69925,4045.71,"783041000","728329000",68640,3925.91,"840959000","743210000","Osceola County","KISSIMMEE",34744,"4492","21-Suburb: Large",28.298868,-81.361335,1209,"1-Metropolitan Area",72427,3600.57
"122","IL","198265",2021,29255897000,1076224000,15440803000,0,2908390000,0,9811425000,0,9035395000,7484194000,"1709930","Chicago Board of Education","Illinois",347484,21943.44,"6933320000","7130321000",341382,NA,"7446508000","7481077000","Cook County","Chicago",60602,"4413","11-City: Large",41.882233,-87.628809,1707,"1-Metropolitan Area",329836,22797.43
"123","CA","146593",2021,7331466923,309132238,1546135000,0,143083016,0,6988651546,0,1986798898,2113720564,"0634320","San Diego Unified School District","California",102270,0,"2101817000","2309589000",97968,4266.88,"2239718000","2247111000","San Diego County","San Diego",92103,"2682","11-City: Large",32.754564,-117.147475,653,"1-Metropolitan Area",95233,4289.35
"124","NC","36608",2021,2521807000,177731000,729458000,0,1498015000,5531000,2711253000,0,1680698000,1936224000,"3702970","Charlotte-Mecklenburg Board of Education","North Carolina",149845,9183.03,"1629822000","1928007000",142733,9284.44,"1676922000","2079414000","Mecklenburg County","Charlotte",28208,NA,"11-City: Large",35.187118,-80.889273,3712,"1-Metropolitan Area",143244,9030.26
"125","CA","146048",2021,1563044372,82221053,671097338,0,91005083,0,1425646414,0,746641507,755110226,"0609850","Corona-Norco Unified School District","California",52557,0,"695202000","710246000",51318,2062.96,"759981000","697555000","Riverside County","Norco",92860,"1903","12-City: Mid-size",33.922685,-117.561634,642,"1-Metropolitan Area",50889,2076.56
"126","CA","146154",2021,3379492852,289829772,993525000,0,1050247712,0,2055791831,0,1271463860,1280455084,"0614550","Fresno Unified School District","California",71265,0,"1163319000","1160647000",70088,2159.3,"1286872000","1219665000","Fresno County","Fresno",93721,"2287","11-City: Large",36.73666,-119.787071,616,"1-Metropolitan Area",69873,3548.96
"127","TX","38875",2021,2958404814,145958346,173815951,0,159309242,0,2537487963,0,821642847,810326964,"4820010","Frisco Independent School District","Texas",62705,4279.4,"733330000","800767000",63493,4388.91,"741665000","877989000","Collin County","FRISCO",75035,NA,"21-Suburb: Large",33.124631,-96.796882,4803,"1-Metropolitan Area",65825,4407.63
"128","TX","38929",2021,1574007095,163913357,162623787,0,169499197,0,1640051807,0,685611633,692353398,"4818300","El Paso Independent School District","Texas",55253,3828.65,"688716000","871968000",50661,3730.52,"676551000","877310000","El Paso County","EL PASO",79902,NA,"11-City: Large",31.765784,-106.491527,4816,"1-Metropolitan Area",50769,3511.69
"129","TX","38877",2021,1284946545,288354208,158421891,0,150887500,0,1816905360,0,844601999,924823455,"4835100","Plano Independent School District","Texas",52629,3855.13,"864934000","825048000",50154,3786.89,"883766000","793295000","Collin County","PLANO",75075,"7524","11-City: Large",33.018521,-96.746043,4803,"1-Metropolitan Area",49400,3638.01
"130","TX","38981",2021,1641404605,118373472,189964192,0,195448921,0,1792432979,0,863766730,909469310,"4807710","Aldine Independent School District","Texas",67259,4200.14,"808024000","771454000",63302,4243.82,"884055000","818824000","Harris County","HOUSTON",77073,NA,"21-Suburb: Large",30.003612,-95.389625,4818,"1-Metropolitan Area",61633,3990.7
"131","TX","38892",2021,5041659137,436798508,600167381,0,557369210,0,5463625265,0,2225354088,2343070724,"4816230","Dallas Independent School District","Texas",153861,9989.46,"2222969000","2240796000",145113,10265.92,"2213643000","2422714000","Dallas County","DALLAS",75231,NA,"11-City: Large",32.87655,-96.768441,4832,"1-Metropolitan Area",143558,9873.5
"132","TX","38988",2021,4584477017,601617530,556359739,0,540884130,0,6718508279,0,2792861674,3019128204,"4823640","Houston Independent School District","Texas",210061,11770.28,"2678991000","2751715000",196943,11750.11,"2622407000","2620063000","Harris County","HOUSTON",77092,"8501","11-City: Large",29.802507,-95.454267,4802,"1-Metropolitan Area",194607,10982.91
"133","TX","38990",2021,2638649634,97454123,239987931,0,232773193,0,2714053319,0,1091806035,1099696832,"4825170","Katy Independent School District","Texas",83423,5602.56,"1047002000","1069512000",84176,5881.77,"1079966000","1088519000","Fort Bend County","KATY",77494,"1057","21-Suburb: Large",29.7803,-95.8327,4822,"1-Metropolitan Area",88368,6080.62
"134","TX","38940",2021,2213317639,175311662,220611616,0,221244800,0,1903266218,0,1060930559,959226672,"4819650","Fort Bend Independent School District","Texas",77756,4876.16,"907541000","1060750000",76735,5054.75,"920232000","1165638000","Fort Bend County","SUGAR LAND",77479,"2308","21-Suburb: Large",29.58887,-95.622211,4822,"1-Metropolitan Area",77545,5019.98
"135","CA","146329",2021,33141717000,1483315000,7935187000,0,11062961000,0,23595338000,0,9827740000,10548699000,"0622710","Los Angeles Unified School District","California",483234,0,"9721115000","9632193000",460633,21872.95,"11112479000","9900601000","Los Angeles County","Los Angeles",90017,"1466","11-City: Large",34.056169,-118.257348,634,"1-Metropolitan Area",435958,21893.94
"136","TX","39189",2021,1720754199,111999207,190880824,0,179590022,0,1906644544,0,714301734,744198499,"4808700","Arlington Independent School District","Texas",59532,4039.63,"723448000","733561000",56840,4114.71,"735050000","780567000","Tarrant County","ARLINGTON",76011,NA,"11-City: Large",32.70982,-97.124471,4806,"1-Metropolitan Area",56311,3923.88
"137","TX","39105",2021,1952719533,92512986,165523063,0,162575489,0,1976636745,0,739075712,783045150,"4815000","Conroe Independent School District","Texas",64799,3930.12,"712178000","715341000",64563,4110.6,"769389000","825633000","Montgomery County","CONROE",77304,NA,"12-City: Mid-size",30.320576,-95.486046,4808,"1-Metropolitan Area",67761,4239.57
"138","TX","39211",2021,2833156660,831388875,246709201,0,256544236,0,2978013973,0,1800313940,1775213465,"4808940","Austin Independent School District","Texas",80911,5484.07,"1698034000","1951250000",74871,5508.22,"1634054000","2001453000","Travis County","AUSTIN",78704,NA,"11-City: Large",30.218592,-97.753379,4835,"1-Metropolitan Area",74602,5238.78
"139","TX","39194",2021,1995676293,270525322,284706401,0,269695599,0,2287000000,0,1048582970,1193433536,"4819700","Fort Worth Independent School District","Texas",82891,5569.24,"1029305000","1111041000",76858,5488.23,"1140461000","1268455000","Tarrant County","FORT WORTH",76107,"3010","11-City: Large",32.760407,-97.360455,4812,"1-Metropolitan Area",74850,5069.52
"140","UT","39321",2021,566792149,86232007,134437593,9860,1880526,0,1278859750,0,671159271,714703095,"4900360","Granite School District","Utah",66276,2810.25,"679625000","707146000",63430,NA,"694821000","723646000","Salt Lake County","SALT LAKE CITY",84115,NA,"21-Suburb: Large",40.716144,-111.889344,4904,"1-Metropolitan Area",62544,2785.77
"141","UT","39322",2021,452332183,85979985,101255162,719866,2102296,0,1617187442,0,550299948,568610702,"4900420","Jordan School District","Utah",57771,2535.29,"513408000","566852000",57267,NA,"553262000","571457000","Salt Lake County","WEST JORDAN",84084,NA,"21-Suburb: Large",40.61707,-111.983991,4904,"1-Metropolitan Area",59363,2632.94
"142","TX","39253",2021,1439049973,114356777,122550951,0,132474011,0,1590469833,0,660015429,626539935,"4838080","Round Rock Independent School District","Texas",50953,3537.26,"592934000","595621000",48302,3562.27,"581534000","730026000","Williamson County","ROUND ROCK",78681,"4941","12-City: Mid-size",30.511455,-97.697025,4831,"1-Metropolitan Area",47167,3450.84
"143","WA","39643",2021,158128494,158128494,52900318,231757822,0,0,817178848,0,1173100791,1340498044,"5307710","Seattle School District No.1","Washington",55986,3238.68,"1218512000","1131647000",53973,3377.56,"1302978000","1114357000","King County","SEATTLE",98134,"1165","11-City: Large",47.580836,-122.330963,5307,"1-Metropolitan Area",51443,3110.54
"144","NV","35535",2021,2225904426,106134180,732973503,0,101100866,0,1880545241,0,733442617,786858586,"3200480","Washoe County School District","Nevada",67301,3875,"794783000","914736000",64584,3994,"811167000","913412000","Washoe County","RENO",89520,NA,"11-City: Large",39.53761,-119.810017,3202,"1-Metropolitan Area",65538,NA
"145","UT","39330",2021,943091448,142454666,114028597,1383774,51252537,0,1766448799,0,737124522,827245124,"4900030","Alpine School District","Utah",83540,3253.9,"737336000","851034000",82800,NA,"803172000","820336000","Utah County","American Fork",84003,NA,"21-Suburb: Large",40.388401,-111.79653,4903,"1-Metropolitan Area",86275,3308.62
"146","WI","40012",2021,1282936553,126598420,161786883,0,631694509,0,1102847000,0,1115965278,1304106715,"5509600","Milwaukee Public Schools","Wisconsin",74683,4388.34,"1210952000","1211356000",71510,4345.15,"1300595000","1251877000","Milwaukee County","Milwaukee",53208,"2627","11-City: Large",43.04813,-87.979731,5504,"1-Metropolitan Area",69115,4269.89
"147","MD","41713",2021,1279348296,113439554,55884306,0,1080270015,0,1487962553,0,1149382548,1173579707,"2400420","Howard County Board of Education","Maryland",58868,4324.5,"1085574000","1054436000",57293,4241,"1158890000","1083360000","Howard County","Ellicott City",21042,NA,"21-Suburb: Large",39.235639,-76.889606,2407,"1-Metropolitan Area",57325,4258.4
"148","TX","44074",2021,1375323988,125069547,124922803,0,121473922,0,1479573171,0,590100378,613605007,"4823910","Humble Independent School District","Texas",45078,2931.02,"539996000","572059000",45528,3123.61,"592505000","715739000","Harris County","HUMBLE",77338,NA,"21-Suburb: Large",30.012879,-95.267822,4802,"1-Metropolitan Area",48112,3200.11
"149","GA","105280",2021,2544087876,175632355,1281485515,0,914081630,0,2388977063,0,1438897061,1495935328,"1301740","Dekalb County Board of Education","Georgia",98800,6892.6,"1480388000","1415756000",93470,7108.9,"1542598000","1363065000","DeKalb County","Decatur",30032,NA,"21-Suburb: Large",33.832661,-84.194543,1304,"1-Metropolitan Area",93473,6676.1
"150","SC","43341",2021,2170073108,110535220,656117028,0,604134867,0,2158311968,0,905067586,963164121,"4501440","Charleston County School District","South Carolina",50299,3462.4,"973407000","952265000",48330,3586.55,"1040191000","984936000","Charleston County","Charleston",29401,NA,"12-City: Mid-size",32.7879,-79.930751,4501,"1-Metropolitan Area",49331,3822.48
"151","GA","48791",2021,1050040927,74122433,528087620,0,409845950,0,1199566845,0,641157143,705863175,"1301230","Clayton County Board of Education","Georgia",54424,3151.5,"659093000","646512000",52149,3292.6,"711007000","661256000","Clayton County","Jonesboro",30236,NA,"21-Suburb: Large",33.53653,-84.357071,1313,"1-Metropolitan Area",52335,3259.1
"152","CO","32036",2021,2192617732,70354704,1215421688,0,44195888,0,1306870241,0,470199362,785167301,"0802910","Cherry Creek School District No 5","Colorado",56228,3234.26,"782035000","782350000",54184,3367.93,"798786000","781829000","Arapahoe County","GREENWOOD VILLAGE",80111,"1394","11-City: Large",39.631056,-104.884328,806,"1-Metropolitan Area",53587,3194.09
"153","FL","32378",2021,627430646,39505481,359379264,0,4984361,0,1333777766,0,712240051,711271553,"1200330","Collier County District School Board","Florida",47834,2786.05,"670634000","653870000",46329,2713.75,"691957000","656509000","Collier County","NAPLES",34109,"919","21-Suburb: Large",26.220768,-81.758198,1219,"1-Metropolitan Area",47617,2847.74
"154","UT","39313",2021,768515216,94343801,111366038,2087893,0,0,1348366970,0,674010309,752601142,"4900210","Davis School District","Utah",74773,3055.61,"714113000","703172000",72082,NA,"740335000","705134000","Davis County","Farmington",84025,NA,"21-Suburb: Large",40.980796,-111.886593,4902,"1-Metropolitan Area",74486,3061.45
"155","FL","68696",2021,4719813000,359975000,1708054000,0,197602000,0,4420987000,0,3112376000,3058227000,"1200180","The School Board of Broward County","Florida",269172,14111.43,"3003196000","3148988000",260235,13737.49,"2979069000","3179172000","Broward County","FORT LAUDERDALE",33301,"3125","21-Suburb: Large",26.114594,-80.139472,1222,"1-Metropolitan Area",256037,13341.46
"156","NC","36675",2021,2669911665,103754394,809760809,0,1632187418,2904179,4190473653,0,1767842436,2000835184,"3704720","Wake County Board of Education","North Carolina",163404,10449.95,"1680930000","1935687000",159802,10515.93,"1709851000","1903899000","Wake County","Cary",27518,"9227","11-City: Large",35.754138,-78.736509,3704,"1-Metropolitan Area",160099,10961.49
"157","FL","70626",2021,909655530,31260947,400285028,0,34931301,0,1542468125,0,679405473,720664896,"1201920","Volusia County District School Board","Florida",63009,3844.04,"671121000","668962000",61088,3664.93,"717538000","673085000","Volusia County","DELAND",32720,"4207","13-City: Small",29.030183,-81.308481,1206,"1-Metropolitan Area",62666,3782.92
"158","TX","38905",2021,1817886278,94556356,120078526,0,139565467,0,1968237681,0,707878440,762324280,"4827300","Lewisville Independent School District","Texas",52189,3605.73,"735535000","870650000",49361,3691.7,"694752000","817532000","Denton County","LEWISVILLE",75067,"2616","21-Suburb: Large",33.044284,-97.035084,4826,"1-Metropolitan Area",49205,3752.34
"159","TX","38993",2021,1284380268,136952210,192750901,0,177412041,0,1413907851,0,653310985,655314293,"4834320","Pasadena Independent School District","Texas",52878,3736.03,"648851000","656620000",50614,3752.34,"671489000","654920000","Harris County","PASADENA",77502,NA,"21-Suburb: Large",29.678147,-95.191679,4829,"1-Metropolitan Area",49326,3828.17
"160","CA","146106",2021,1408269561,87653366,756867000,0,12171425,0,1404090619,0,889013352,952310639,"0612330","Elk Grove Unified School District","California",63660,0,"838162000","860041000",63157,2722.23,"940531000","877050000","Sacramento County","Elk Grove",95624,"1801","21-Suburb: Large",38.41158,-121.373061,607,"1-Metropolitan Area",62229,2763.54
"161","GA","70971",2021,2554459000,171991000,1350882000,0,909504000,0,2407585000,0,1531381000,1586245000,"1301290","Cobb County School District","Georgia",112097,7361.8,"1504214000","1528033000",107379,7347.7,"1577457000","1456244000","Cobb County","Marietta",30061,NA,"21-Suburb: Large",33.938441,-84.538051,1311,"1-Metropolitan Area",106970,7331.5
"162","GA","70961",2021,1577954716,106170431,954785144,0,411088967,0,1867953235,0,1027374617,1107065727,"1300120","School District Atlanta Public Schools","Georgia",52416,4025.5,"1230648000","1032605000",51012,4099.2,"1127638000","1041310000","Fulton County","Atlanta",30335,NA,"11-City: Large",33.748278,-84.392176,1305,"1-Metropolitan Area",49994,4076.9
"163","NM","35931",2021,4771504689,113733231,3536282260,0,485256883,0,2066405273,0,1868948339,1120662608,"3500060","Albuquerque Municipal School District No. 12","New Mexico",88312,6183.24,"1228951000","1147156000",83031,6050.39,"1169123000","1201928000","Bernalillo County","ALBUQUERQUE",87110,NA,"11-City: Large",35.102965,-106.572756,3501,"1-Metropolitan Area",81762,6029.47
"164","MD","41282",2021,2408740296,190874105,76712926,0,2064794000,0,1823887212,0,1440838073,1460219112,"2400060","Anne Arundel County Board of Education","Maryland",84984,5787,"1457055000","1501275000",83044,5957.47,"1469198000","1465525000","Anne Arundel County","Annapolis",21401,NA,"21-Suburb: Large",38.97612,-76.559401,2404,"1-Metropolitan Area",83163,6013.61
"165","TX","38819",2021,2030620656,109566876,172926149,0,189664039,0,1938563629,0,782352730,794725340,"4832940","North East Independent School District","Texas",64539,4255.59,"759969000","769730000",60483,4224.64,"773233000","713563000","Bexar County","SAN ANTONIO",78217,NA,"11-City: Large",29.521666,-98.456886,4821,"1-Metropolitan Area",59830,4001.53
"166","FL","98989",2021,1155033120,118856462,584171515,0,35381443,0,1719541306,0,1158981177,1162151131,"1201590","School District of Polk County","Florida",102952,5856,"1214768000","1182799000",100495,5865,"1186101000","1295313000","Polk County","BARTOW",33830,"7124","22-Suburb: Mid-size",27.87546,-81.846336,1217,"1-Metropolitan Area",105422,5927
"167","PA","87525",2021,8343807884,592436634,3790600000,0,186300000,0,3424689405,0,3945983515,4010160109,"4218990","School District of Philadelphia","Pennsylvania",130617,7789.23,"3705298000","3967179000",124111,7855.67,"3812902000","3899835000","Philadelphia County","Philadelphia",19130,NA,"11-City: Large",39.96101,-75.162641,4203,"1-Metropolitan Area",118053,7968.97
"168","CA","146325",2021,3149319980,190405122,962921099,0,451231966,0,2783200508,0,1133568444,1268432361,"0622500","Long Beach Unified School District","California",71712,0,"1173998000","1215628000",69413,2808.82,"1266461000","1163778000","Los Angeles County","Long Beach",90810,"1839","11-City: Large",33.82892,-118.213761,647,"1-Metropolitan Area",67292,2738.24
"169","CO","32057",2021,2761721373,185455869,1523282578,0,55380519,0,1930696330,0,588685435,982180796,"0804800","Jefferson County School District No R-1","Colorado",84078,4726.72,"1111695000","1118672000",80099,4700.91,"1066060000","1181318000","Jefferson County","GOLDEN",80401,"1","21-Suburb: Large",39.73862,-105.164489,807,"1-Metropolitan Area",76904,4722.6
"170","SC","38341",2021,2736790589,151727868,1014813176,0,919301322,0,1780789326,0,997471803,1043035976,"4502310","The School District of Greenville County","South Carolina",77302,5003.8,"1004916000","930194000",74094,4990.38,"1058506000","984000000","Greenville County","Greenville",29601,NA,"21-Suburb: Large",34.8439,-82.396061,4504,"1-Metropolitan Area",76939,5133.93
"171","FL","102323",2021,2873292546,204920190,1384664900,0,57427977,0,7209306551,0,2642541171,2877820251,"1201440","Orange County District School Board","Florida",208875,11946,"2658681000","2665506000",199089,11757,"2801991000","2627445000","Orange County","ORLANDO",32801,"1129","21-Suburb: Large",28.55013,-81.385021,1210,"1-Metropolitan Area",203224,11386
"172","TX","38984",2021,4426517127,292483062,348098746,0,327842108,0,3982041208,0,1487393613,1418839448,"4816110","Cypress-Fairbanks Independent School District","Texas",117446,7375.24,"1313144000","1401690000",114881,7659.35,"1391872000","1582191000","Harris County","HOUSTON",77065,"4208","21-Suburb: Large",29.922756,-95.583673,4802,"1-Metropolitan Area",117217,7682.15
"173","TX","38820",2021,3133192193,111604773,304096292,0,298608482,0,3222278252,0,1279234386,1314426478,"4833120","Northside Independent School District","Texas",107817,7001.95,"1281221000","1325003000",103151,6844.94,"1223549000","1344525000","Bexar County","SAN ANTONIO",78238,"1699","11-City: Large",29.490785,-98.601414,4820,"1-Metropolitan Area",102377,6792.17
"174","GA","70979",2021,2121528100,147240394,1125485679,0,779381586,0,2867859000,0,1312886363,1393108013,"1302280","Fulton County Board of Education","Georgia",93897,6364.3,"1444142000","1360735000",90300,6261.2,"1425565000","1326695000","Fulton County","Atlanta",30315,NA,"21-Suburb: Large",33.68066,-84.414261,1305,"1-Metropolitan Area",90355,6167.3
"175","CA","146595",2021,3258391470,86643394,942536683,0,1012295819,0,2571284111,0,1300564922,1352568770,"0634410","San Francisco Unified School District","California",52811,0,"1171190000","1189503000",51790,2501.58,"1228255000","1161029000","San Francisco County","San Francisco",94102,"5207","11-City: Large",37.779253,-122.422153,612,"1-Metropolitan Area",49204,2547.13
"176","FL","165645",2021,1207301018,65246844,650761367,0,53682679,0,1426312027,0,1430063037,1447560967,"1200480","Duval County Public Schools","Florida",130279,6851,"1329442000","1282135000",126815,6539,"1436463000","1354660000","Duval County","JACKSONVILLE",32207,"8152","11-City: Large",30.317393,-81.650348,1204,"1-Metropolitan Area",128948,7126
"177","AL","1017229",2021,1215465785,0,518336000,0,325912829,0,873363316,0,601906067,678544537,"0102370","Mobile County Board of School Commissioners","Alabama",53941,2973.4,"609296000","582822000",52460,2960.79,"675221000","623151000","Mobile County","Mobile",36618,"69","12-City: Mid-size",30.718638,-88.219762,101,"1-Metropolitan Area",52614,2608.55
"178","VA","1267423",2021,650708572,47211755,520851160,0,76925442,0,384459131,0,614221032,614221032,"5101890","Henrico County School Board","Virginia",51786,3030.57,"704381000","666541000",50191,2938.87,"760463000","735065000","Henrico County","Henrico",23223,"420","21-Suburb: Large",37.5416,-77.3823,5104,"1-Metropolitan Area",49991,2893
"179","MD","196828",2021,3506700863,261759310,207678490,0,2911750000,0,2137400286,0,2514357089,2549532338,"2400510","Prince Georgeâ€™S County Public Schools","Maryland",135952,9309.51,"2517293000","2393113000",131646,9368.2,"2646083000","2577578000","Prince George's County","Upper Marlboro",20772,NA,"21-Suburb: Large",38.815333,-76.759758,2405,"1-Metropolitan Area",128770,9274
"180","TN","87787",2021,1224370835,80275706,27221,161236908,1130535591,0,1554560497,0,1332786133,1375925703,"4700148","Board of Education of Shelby County","Tennessee",113198,6897,"1347179000","1395085000",110780,6546.09,"1385982000","1382789000","Shelby County","Memphis",38112,NA,"11-City: Large",35.130137,-89.975672,4709,"1-Metropolitan Area",105596,6694.54
"181","TN","107389",2021,191405854,40384350,NA,42123364,149056443,NA,939851918,NA,493952264,595234346,"4703690","Rutherford County Schools","Tennessee",47458,3083.9,"461443000","493333000",47186,3008.05,"501384000","563614000","Rutherford County","Murfreesboro",37128,NA,"21-Suburb: Large",35.812086,-86.403053,4704,"1-Metropolitan Area",49253,3082.8
"182","VA","1250804",2021,1810657330,194811464,1185302293,0,334779254,0,2608203430,0,1541305574,1611288141,"5102250","Loudoun County Public Schools","Virginia",83606,5995.09,"1382367000","1493054000",81066,6114.58,"1508890000","1533826000","Loudoun County","Ashburn",20148,NA,"21-Suburb: Large",39.0337,-77.517751,5110,"1-Metropolitan Area",81131,5924
"183","AZ","30554",2021,1014094248,72811015,567135119,0,0,0,1011255254,0,667939010,702988195,"0404970","Mesa Unified School District No.4","Arizona",62703,3274.31,"630987000","619835000",57956,3321.27,"704867000","681325000","Maricopa County","MESA",85201,"7422","11-City: Large",33.4147,-111.829291,409,"1-Metropolitan Area",58859,3476.15
"184","LA","76062",2021,1594601621,78504670,641548785,0,659142753,0,819840853,0,739875731,733998778,"2200840","Jefferson Parish Public School System","Louisiana",49862,2362.9,"671932000","633269000",48160,2302.73,"730466000","665419000","Jefferson Parish","Harvey",70058,"3585","21-Suburb: Large",29.8864,-90.055,2202,"1-Metropolitan Area",46896,2186.31
"185","MI","161679",2021,1941460466,62059276,0,0,0,0,58933410,0,88866724,178208379,"2601103","Detroit Community Schools","Michigan",50644,3106.83,"882259000","832841000",48782,3074.53,"932712000","872308000","Wayne County","DETROIT",48202,"3085","11-City: Large",42.36924,-83.076781,2613,"1-Metropolitan Area",48536,3143.83
"186","VA","1265776",2021,1077086065,118730520,748825120,0,147744327,0,899445665,0,881553759,910618796,"5103840","School Board of The City of Virginia Beach","Virginia",68706,4244.49,"875527000","932013000",65612,4354.66,"929419000","936164000","Virginia Beach city","Virginia Beach",23456,"6038","11-City: Large",36.751983,-76.059624,5102,"1-Metropolitan Area",65450,4238
"187","FL","93779",2021,1020726984,84611623,475178596,0,17121999,0,1183497512,0,838044420,851618092,"1200150","Brevard District School Board County","Florida",73962,4515.1,"800729000","791424000",70996,4397.07,"834159000","780295000","Brevard County","VIERA",32940,"6601","21-Suburb: Large",28.248696,-80.736704,1208,"1-Metropolitan Area",72497,4433.3
"188","FL","93789",2021,3562652000,202696000,1496769000,0,66950000,0,4754496000,0,2518609000,2752329000,"1201500","The School District of Palm Beach County","Florida",194675,11882.84,"2591858000","2555723000",187057,11696.46,"2744547000","2522461000","Palm Beach County","WEST PALM BEACH",33406,"5869","21-Suburb: Large",26.64925,-80.093741,1221,"1-Metropolitan Area",187943,11554.7
"189","GA","70981",2021,4969131931,252439784,2014869263,0,1420468758,0,3632867331,0,2329791563,2347712215,"1302550","Gwinnett County Board of Education","Georgia",180589,11429,"2354981000","2212800000",177401,11361.3,"2344890000","2230587000","Gwinnett County","Lawrenceville",30045,NA,"21-Suburb: Large",34.016948,-84.057792,1307,"1-Metropolitan Area",179581,11746.5
"190","TN","107203",2021,66882,66882,0,0,0,0,0,0,2399848,2230177,"4703180","Metropolitan Nashville Public Schools","Tennessee",85588,5529.6,"1259031000","1151304000",80494,5245.5,"1508635000","1215256000","Davidson County","Nashville",37204,NA,"11-City: Large",36.1219,-86.766811,4705,"1-Metropolitan Area",80381,4856.29
"191","TX","38991",2021,1579426495,89156006,157094062,0,151372041,0,1653012423,0,627388134,646937897,"4825740","Klein Independent School District","Texas",54096,3530.5,"594459000","555899000",52824,3617.09,"629979000","618854000","Harris County","KLEIN",77379,"3299","21-Suburb: Large",30.04787,-95.533248,4802,"1-Metropolitan Area",53294,3653.1
"192","VA","1250808",2021,1376448983,172905222,0,1003741236,0,142765589,2445510537,0,1376884937,1554705819,"5103130","Prince William County Public Schools","Virginia",92237,5696.94,"1302817000","1321655000",89548,5650.41,"1425919000","1314351000","Prince William County","Manassas",20112,NA,"21-Suburb: Large",38.63614,-77.434841,5101,"1-Metropolitan Area",90070,5631
"193","TN","107065",2021,139863723,0,5443392,0,39453803,0,1069967426,0,605347710,675775385,"4702220","Knox County Schools","Tennessee",61545,3925.3,"604658000","596329000",59169,3931.42,"653066000","611632000","Knox County","Knoxville",37902,NA,"21-Suburb: Large",35.96136,-83.915571,4702,"1-Metropolitan Area",60426,4016.73
"194","VA","1267421",2021,4923543994,195677115,4115292996,0,387461319,0,3446573794,0,3320812299,3402118652,"5101260","Fairfax County Public Schools","Virginia",188887,13132.45,"3154609000","3319353000",180028,13149.81,"3288664000","3286505000","Fairfax County","Falls Church",22042,NA,"21-Suburb: Large",38.868583,-77.22411,5111,"1-Metropolitan Area",178479,13199
"195","MA","1267424",2021,0,0,756926000,0,1182277000,0,0,0,2083935000,2083935000,"2502790","Boston City School","Massachusetts",50480,4406.39,"1550952000","1763526000",48112,4595.49,"1654669000","1919037000","Suffolk County","Roxbury",2119,NA,"11-City: Large",42.330141,-71.083712,2507,"1-Metropolitan Area",46169,4256.01
"196","FL","148148",2022,1069763344,89797654,204212328,0,112148615,0,1897668683,140365999,845070031,999482073,"1201530","Pasco County District School Board","Florida",76661,4650.93,"819581000","807965000",77125,4790.18,"888274000","928434000","Pasco County","LAND O LAKES",34638,"2826","21-Suburb: Large",28.262694,-82.477158,1212,"1-Metropolitan Area",81157,4711.88
"197","FL","148130",2022,477014109,31353196,142380945,0,17487904,0,1297267812,261929532,626010304,735538045,"1201230","Manatee County District School Board","Florida",50088,2945.63,"606069000","604864000",49181,2856.84,"642636000","618914000","Manatee County","BRADENTON",34205,"8840","21-Suburb: Large",27.494847,-82.564795,1216,"1-Metropolitan Area",50248,2928.34
"198","NC","36539",2022,592275082,19700961,79131743,0,455719306,244497,314331369,85723867,542096895,616885275,"3700011","Cumberland County Board of Education","North Carolina",50750,3421.89,"511445000","515721000",49278,3434.3,"508036000","532708000","Cumberland County","Fayetteville",28306,NA,"12-City: Mid-size",35.0142,-78.896331,3709,"1-Metropolitan Area",48860,3516.85
"199","FL","69989",2022,736047671,108070274,305861431,0,61258742,0,2509705281,130808970,1169154119,1243545374,"1201560","District School Board of Pinellas County","Florida",99772,7379.84,"1112631000","1159835000",96068,6829.44,"1203245000","1231545000","Pinellas County","LARGO",33770,"3536","11-City: Large",27.914041,-82.793562,1213,"1-Metropolitan Area",95446,6007.53
"200","KY","33679",2022,1579546957,152347634,443185785,0,355914935,0,1562868810,595209706,1891467349,2188616640,"2102990","Jefferson County Board of Education","Kentucky",100348,6160.96,"1491611000","1564381000",95911,6236.39,"1599691000","1603292000","Jefferson County","Louisville",40218,NA,"11-City: Large",38.1995,-85.6851,2103,"1-Metropolitan Area",94393,6223.52
"201","FL","32402",2022,946684313,150084433,246395024,0,52461989,0,2185547139,191356036,1168900535,1382279297,"1201080","The School District of Lee County","Florida",95613,5194.6,"1161742000","1103854000",94927,5156.15,"1185267000","1151329000","Lee County","FORT MYERS",33966,"1012","21-Suburb: Large",26.5997,-81.8536,1219,"1-Metropolitan Area",97264,5170.54
"202","MD","33968",2022,3642516561,265436448,99777369,0,2827843426,0,4063724842,228527407,3316534997,3377303917,"2400480","Montgomery County Public Schools","Maryland",165267,11289.73,"3473558000","3261751000",160564,11510.59,"3587838000","3183090000","Montgomery County","Rockville",20850,NA,"21-Suburb: Large",39.095191,-77.158219,2408,"1-Metropolitan Area",158231,11605.84
"203","MD","171323",2022,2205773000,172099000,98387000,0,1746250000,0,2519137000,433235000,2065036000,2024680000,"2400120","Board of Education of Baltimore County","Maryland",115038,7629.7,"2001257000","1948149000",111084,7821.41,"2000658000","1930683000","Baltimore County","Towson",21204,NA,"21-Suburb: Large",39.404025,-76.63021,2403,"1-Metropolitan Area",111136,7684.77
"204","FL","196483",2022,444158395,45647936,117730342,0,31422551,0,1271097783,465044489,524315563,592419358,"1201740","St. Johns County School District","Florida",43628,2427.1,"485351000","466766000",44550,2445.77,"529241000","545492000","St. Johns County","ST AUGUSTINE",32084,"3633","41-Rural: Fringe",29.897871,-81.315877,1204,"1-Metropolitan Area",48032,2600.17
"205","MD","44313",2022,496357000,369478000,0,0,0,0,2274861000,659719000,1642729000,1937428000,"2400090","Baltimore City Public School System","Maryland",79187,4932.9,"1708612000","1647371000",77856,5063.13,"1672842000","1609484000","Baltimore city","Baltimore",21202,NA,"11-City: Large",39.312016,-76.613209,2407,"1-Metropolitan Area",77807,5109.6
"206","NC","196971",2022,753614650,24987587,94326783,0,589252692,289817,794648351,74753171,671313460,776047317,"3701500","Winston-Salem/Forsyth County Schools-Board of Education","North Carolina",54566,3765.57,"560848000","577002000",51843,3635.2,"581315000","624108000","Forsyth County","Winston Salem",27105,NA,"12-City: Mid-size",36.17996,-80.281211,3705,"1-Metropolitan Area",52681,3593.91
"207","HI","71050",2022,603431402,341641025,0,0,0,0,4041519747,1774379964,3289171601,3579135080,"1500030","Hawaii Department of Education","Hawaii",181088,12220.77,"3396555000","3214490000",176441,12145.4,"3241890000","3115265000","Honolulu County","Honolulu",96813,NA,"21-Suburb: Large",21.309338,-157.855285,1501,"1-Metropolitan Area",173178,12026.2
"208","CO","1237862",2022,3663304330,161782476,4035111,0,26552730,0,3150266611,1286401683,1406365102,1692905784,"0803360","City And County of Denver School District No. 1","Colorado",92143,6149.47,"1588186000","1605362000",89081,6120.67,"1615429000","1593940000","Denver County","DENVER",80203,"2996","11-City: Large",39.74575,-104.985751,801,"1-Metropolitan Area",88911,6140.88
"209","FL","198253",2022,513854719,31825233,151318672,0,15279565,0,1647382054,425389029,753198847,935328714,"1201470","Osceola County District School Board","Florida",69925,4045.71,"783041000","728329000",68640,3925.91,"840959000","743210000","Osceola County","KISSIMMEE",34744,"4492","21-Suburb: Large",28.298868,-81.361335,1209,"1-Metropolitan Area",72427,3600.57
"210","IL","198265",2022,29464982000,1271682000,14727410000,0,3304981000,0,10484207000,3288307000,9159928000,8394133000,"1709930","Chicago Board of Education","Illinois",347484,21943.44,"6933320000","7130321000",341382,NA,"7446508000","7481077000","Cook County","Chicago",60602,"4413","11-City: Large",41.882233,-87.628809,1707,"1-Metropolitan Area",329836,22797.43
"211","CA","146593",2022,6939382611,348394080,803920000,0,136132998,0,7680334133,2351335484,1965428482,2348998159,"0634320","San Diego Unified School District","California",102270,0,"2101817000","2309589000",97968,4266.88,"2239718000","2247111000","San Diego County","San Diego",92103,"2682","11-City: Large",32.754564,-117.147475,653,"1-Metropolitan Area",95233,4289.35
"212","CA","146048",2022,1202562776,71179338,345568234,0,90317797,0,1476931789,60692287,706726600,829160242,"0609850","Corona-Norco Unified School District","California",52557,0,"695202000","710246000",51318,2062.96,"759981000","697555000","Riverside County","Norco",92860,"1903","12-City: Mid-size",33.922685,-117.561634,642,"1-Metropolitan Area",50889,2076.56
"213","CA","146154",2022,2557865078,214854312,492432000,0,987304445,0,1920500019,827657672,1324637810,1515772451,"0614550","Fresno Unified School District","California",71265,0,"1163319000","1160647000",70088,2159.3,"1286872000","1219665000","Fresno County","Fresno",93721,"2287","11-City: Large",36.73666,-119.787071,616,"1-Metropolitan Area",69873,3548.96
"214","CA","146329",2022,28683759000,1551385000,4311675000,0,10186225000,0,24373982000,8961303000,10824582000,12425358000,"0622710","Los Angeles Unified School District","California",483234,0,"9721115000","9632193000",460633,21872.95,"11112479000","9900601000","Los Angeles County","Los Angeles",90017,"1466","11-City: Large",34.056169,-118.257348,634,"1-Metropolitan Area",435958,21893.94
"215","FL","69706",2022,5172321000,354684000,979938000,0,293561000,0,5796042000,1291256000,4310277000,4525881000,"1200390","The School Board of Miami-Dade County","Florida",347307,18373,"4055452000","4111909000",334261,16758,"4324851000","4158104000","Miami-Dade County","MIAMI",33132,"1308","21-Suburb: Large",25.78893,-80.190942,1224,"1-Metropolitan Area",328589,17365
"216","TX","39189",2022,1768016847,127435032,94001973,0,184805089,0,2082573097,961742239,735907670,791863327,"4808700","Arlington Independent School District","Texas",59532,4039.63,"723448000","733561000",56840,4114.71,"735050000","780567000","Tarrant County","ARLINGTON",76011,NA,"11-City: Large",32.70982,-97.124471,4806,"1-Metropolitan Area",56311,3923.88
"217","TX","39105",2022,2180487749,105883090,86473036,0,172908251,0,2305939779,655098521,753057341,796588711,"4815000","Conroe Independent School District","Texas",64799,3930.12,"712178000","715341000",64563,4110.6,"769389000","825633000","Montgomery County","CONROE",77304,NA,"12-City: Mid-size",30.320576,-95.486046,4808,"1-Metropolitan Area",67761,4239.57
"218","TX","39211",2022,2497215287,313241796,118923950,0,261315475,0,2842298602,1013409208,1806248529,1904957717,"4808940","Austin Independent School District","Texas",80911,5484.07,"1698034000","1951250000",74871,5508.22,"1634054000","2001453000","Travis County","AUSTIN",78704,NA,"11-City: Large",30.218592,-97.753379,4835,"1-Metropolitan Area",74602,5238.78
"219","TX","39194",2022,2010367300,234785642,137291685,0,266947488,0,2568462312,830414160,1023582315,1184225922,"4819700","Fort Worth Independent School District","Texas",82891,5569.24,"1029305000","1111041000",76858,5488.23,"1140461000","1268455000","Tarrant County","FORT WORTH",76107,"3010","11-City: Large",32.760407,-97.360455,4812,"1-Metropolitan Area",74850,5069.52
"220","UT","39321",2022,433408113,97999158,15817857,73809788,1620690,0,1439409629,748257929,619422155,789408746,"4900360","Granite School District","Utah",66276,2810.25,"679625000","707146000",63430,NA,"694821000","723646000","Salt Lake County","SALT LAKE CITY",84115,NA,"21-Suburb: Large",40.716144,-111.889344,4904,"1-Metropolitan Area",62544,2785.77
"221","UT","39322",2022,341856873,85925380,8581342,49299598,2919669,0,1712219161,602511328,539122502,621924758,"4900420","Jordan School District","Utah",57771,2535.29,"513408000","566852000",57267,NA,"553262000","571457000","Salt Lake County","WEST JORDAN",84084,NA,"21-Suburb: Large",40.61707,-111.983991,4904,"1-Metropolitan Area",59363,2632.94
"222","TX","39253",2022,1348198749,169246744,60755425,0,133656092,0,1560566783,632597584,623834463,633621167,"4838080","Round Rock Independent School District","Texas",50953,3537.26,"592934000","595621000",48302,3562.27,"581534000","730026000","Williamson County","ROUND ROCK",78681,"4941","12-City: Mid-size",30.511455,-97.697025,4831,"1-Metropolitan Area",47167,3450.84
"223","WA","39643",2022,160077477,161156776,140712957,28379527,0,0,869143171,869143171,1371118223,1408997234,"5307710","Seattle School District No.1","Washington",55986,3238.68,"1218512000","1131647000",53973,3377.56,"1302978000","1114357000","King County","SEATTLE",98134,"1165","11-City: Large",47.580836,-122.330963,5307,"1-Metropolitan Area",51443,3110.54
"224","WI","40012",2022,1129331858,97071457,109186165,179587826,579869520,0,1180026444,281923711,1223409371,1460927025,"5509600","Milwaukee Public Schools","Wisconsin",74683,4388.34,"1210952000","1211356000",71510,4345.15,"1300595000","1251877000","Milwaukee County","Milwaukee",53208,"2627","11-City: Large",43.04813,-87.979731,5504,"1-Metropolitan Area",69115,4269.89
"225","MD","41713",2022,1417142394,124432610,40867624,0,1224705936,0,1589574927,96472601,1292774094,1308170225,"2400420","Howard County Board of Education","Maryland",58868,4324.5,"1085574000","1054436000",57293,4241,"1158890000","1083360000","Howard County","Ellicott City",21042,NA,"21-Suburb: Large",39.235639,-76.889606,2407,"1-Metropolitan Area",57325,4258.4
"226","GA","105280",2022,1410439661,172939134,458069789,0,674481213,0,2545765434,925785121,1366999080,1754322007,"1301740","Dekalb County Board of Education","Georgia",98800,6892.6,"1480388000","1415756000",93470,7108.9,"1542598000","1363065000","DeKalb County","Decatur",30032,NA,"21-Suburb: Large",33.832661,-84.194543,1304,"1-Metropolitan Area",93473,6676.1
"227","SC","43341",2022,2171137557,325640742,595948185,0,718715844,0,2264868490,588583936,990803695,1091173718,"4501440","Charleston County School District","South Carolina",50299,3462.4,"973407000","952265000",48330,3586.55,"1040191000","984936000","Charleston County","Charleston",29401,NA,"12-City: Mid-size",32.7879,-79.930751,4501,"1-Metropolitan Area",49331,3822.48
"228","TX","38895",2022,801473441,90945128,80131846,0,158355733,0,1306236242,526591944,621571261,698694619,"4820340","Garland Independent School District","Texas",55701,3594.08,"662541000","617003000",53921,3609.3,"646979000","611815000","Dallas County","GARLAND",75042,"7108","21-Suburb: Large",32.90868,-96.683861,4805,"1-Metropolitan Area",53674,3448.14
"229","NC","36608",2022,2193102000,111992000,288326000,0,1678546000,897000,2812012000,318044000,1743696000,2124930000,"3702970","Charlotte-Mecklenburg Board of Education","North Carolina",149845,9183.03,"1629822000","1928007000",142733,9284.44,"1676922000","2079414000","Mecklenburg County","Charlotte",28208,NA,"11-City: Large",35.187118,-80.889273,3712,"1-Metropolitan Area",143244,9030.26
"230","NV","35535",2022,1956695511,111046032,480019715,0,84116082,0,1931063750,644495587,719872778,845829655,"3200480","Washoe County School District","Nevada",67301,3875,"794783000","914736000",64584,3994,"811167000","913412000","Washoe County","RENO",89520,NA,"11-City: Large",39.53761,-119.810017,3202,"1-Metropolitan Area",65538,NA
"231","UT","39330",2022,809933690,141824163,0,67529945,59817996,0,1928760747,714909788,766987776,922755140,"4900030","Alpine School District","Utah",83540,3253.9,"737336000","851034000",82800,NA,"803172000","820336000","Utah County","American Fork",84003,NA,"21-Suburb: Large",40.388401,-111.79653,4903,"1-Metropolitan Area",86275,3308.62
"232","TX","44074",2022,1367054363,131966205,55777235,0,115558569,0,1580263301,606985417,586047206,633237092,"4823910","Humble Independent School District","Texas",45078,2931.02,"539996000","572059000",45528,3123.61,"592505000","715739000","Harris County","HUMBLE",77338,NA,"21-Suburb: Large",30.012879,-95.267822,4802,"1-Metropolitan Area",48112,3200.11
"233","NM","35931",2022,2349381349,132553407,1208673186,0,372367571,0,2108907064,539673655,1162855785,1207207943,"3500060","Albuquerque Municipal School District No. 12","New Mexico",88312,6183.24,"1228951000","1147156000",83031,6050.39,"1169123000","1201928000","Bernalillo County","ALBUQUERQUE",87110,NA,"11-City: Large",35.102965,-106.572756,3501,"1-Metropolitan Area",81762,6029.47
"234","NC","36571",2022,970820060,46875286,130946596,0,750028289,405890,944046417,102069347,871860532,984389389,"3701920","Guilford County Board of Education","North Carolina",72682,4688.43,"788567000","787207000",70047,4770.13,"819880000","820562000","Guilford County","Greensboro",27401,NA,"11-City: Large",36.08087,-79.793191,3713,"1-Metropolitan Area",69173,4757.33
"235","MD","41282",2022,2579835716,226110835,59724128,0,2234317354,0,2021456788,362816576,1541721301,1668980363,"2400060","Anne Arundel County Board of Education","Maryland",84984,5787,"1457055000","1501275000",83044,5957.47,"1469198000","1465525000","Anne Arundel County","Annapolis",21401,NA,"21-Suburb: Large",38.97612,-76.559401,2404,"1-Metropolitan Area",83163,6013.61
"236","CO","32045",2022,1179974812,80110367,636750686,0,30807156,0,1173435856,369437141,554339436,867335496,"0803450","Douglas County School District Re.1","Colorado",67305,3680.47,"855927000","854698000",62979,3664.71,"831121000","869311000","Douglas County","CASTLE ROCK",80108,NA,"21-Suburb: Large",39.375981,-104.859375,804,"1-Metropolitan Area",63596,3609.66
"237","FL","32425",2022,368504409,46140769,172583468,0,9869686,0,1107092012,72432150,671846476,746766650,"1201710","Seminole County Public Schools","Florida",68096,3571.49,"682448000","674976000",66226,3307.17,"724493000","669438000","Seminole County","SANFORD",32773,"7125","21-Suburb: Large",28.75788,-81.284129,1207,"1-Metropolitan Area",66729,3543.27
"238","FL","32396",2022,1885482000,194585000,603952000,0,226659000,0,3454101000,727420000,2344589000,2866307000,"1200870","The School District of Hillsborough County","Florida",223305,13538.5,"2423595000","2479463000",218943,13710.99,"2563752000","2430968000","Hillsborough County","TAMPA",33602,"3502","21-Suburb: Large",27.949214,-82.452317,1214,"1-Metropolitan Area",224149,13001.82
"239","GA","32567",2022,1096947127,55299970,189187977,0,282977024,0,1484534906,360377890,582971133,727522197,"1302220","Forsyth County Board of Education","Georgia",50544,3078.1,"613976000","694258000",51152,3157.3,"648257000","694228000","Forsyth County","Cumming",30040,NA,"21-Suburb: Large",34.23248,-84.120841,1307,"1-Metropolitan Area",52757,3206.5
"240","SC","38341",2022,2631862828,134267805,860615385,0,1065211698,0,1827469717,663777757,1060578074,1147588388,"4502310","The School District of Greenville County","South Carolina",77302,5003.8,"1004916000","930194000",74094,4990.38,"1058506000","984000000","Greenville County","Greenville",29601,NA,"21-Suburb: Large",34.8439,-82.396061,4504,"1-Metropolitan Area",76939,5133.93
"241","GA","70971",2022,1478270000,181733000,497854000,0,677878000,0,2569200000,843748000,1398684000,1702635000,"1301290","Cobb County School District","Georgia",112097,7361.8,"1504214000","1528033000",107379,7347.7,"1577457000","1456244000","Cobb County","Marietta",30061,NA,"21-Suburb: Large",33.938441,-84.538051,1311,"1-Metropolitan Area",106970,7331.5
"242","GA","70961",2022,1053233508,126492318,513809696,0,311254040,0,2050339008,594352572,1073033604,1339925605,"1300120","School District Atlanta Public Schools","Georgia",52416,4025.5,"1230648000","1032605000",51012,4099.2,"1127638000","1041310000","Fulton County","Atlanta",30335,NA,"11-City: Large",33.748278,-84.392176,1305,"1-Metropolitan Area",49994,4076.9
"243","TX","38984",2022,4220130011,259497886,169555630,0,340606217,0,3973329796,1380987634,1402098528,1445079192,"4816110","Cypress-Fairbanks Independent School District","Texas",117446,7375.24,"1313144000","1401690000",114881,7659.35,"1391872000","1582191000","Harris County","HOUSTON",77065,"4208","21-Suburb: Large",29.922756,-95.583673,4802,"1-Metropolitan Area",117217,7682.15
"244","TX","38820",2022,3044379243,152711986,137638982,0,288188237,0,3429226472,883699648,1245917923,1402718826,"4833120","Northside Independent School District","Texas",107817,7001.95,"1281221000","1325003000",103151,6844.94,"1223549000","1344525000","Bexar County","SAN ANTONIO",78238,"1699","11-City: Large",29.490785,-98.601414,4820,"1-Metropolitan Area",102377,6792.17
"245","NE","35480",2022,1854851000,164310000,709651000,0,26659000,0,1539810000,511776000,961290000,885291000,"3174820","Omaha City School District 1","Nebraska",53483,3498.07,"783830000","816217000",51914,3259.94,"765346000","990674000","Douglas County","OMAHA",68131,"2024","11-City: Large",41.267518,-95.960099,3102,"1-Metropolitan Area",51626,3445.22
"246","NV","35528",2022,6616725990,581596630,2167406738,0,375206564,0,7961926100,2708997383,3731048703,4480642764,"3200060","Clark County School District","Nevada",328991,16490,"3780288000","3772124000",315646,14395,"3813021000","3820370000","Clark County","LAS VEGAS",89146,NA,"11-City: Large",36.145349,-115.211177,3201,"1-Metropolitan Area",315787,NA
"247","CA","146106",2022,1075350313,166151615,363655000,0,11624895,0,1561699862,669899052,850822680,1018154039,"0612330","Elk Grove Unified School District","California",63660,0,"838162000","860041000",63157,2722.23,"940531000","877050000","Sacramento County","Elk Grove",95624,"1801","21-Suburb: Large",38.41158,-121.373061,607,"1-Metropolitan Area",62229,2763.54
"248","TX","38875",2022,2989594645,148731789,87846717,0,167202174,0,2632260075,809888582,832571939,828768034,"4820010","Frisco Independent School District","Texas",62705,4279.4,"733330000","800767000",63493,4388.91,"741665000","877989000","Collin County","FRISCO",75035,NA,"21-Suburb: Large",33.124631,-96.796882,4803,"1-Metropolitan Area",65825,4407.63
"249","TX","38929",2022,1455178794,151037268,74746455,0,162029167,0,1656410853,443474513,636466517,694964092,"4818300","El Paso Independent School District","Texas",55253,3828.65,"688716000","871968000",50661,3730.52,"676551000","877310000","El Paso County","EL PASO",79902,NA,"11-City: Large",31.765784,-106.491527,4816,"1-Metropolitan Area",50769,3511.69
"250","TX","38877",2022,1068266206,306744250,74488392,0,147854332,0,1789995850,711712343,839741773,948783062,"4835100","Plano Independent School District","Texas",52629,3855.13,"864934000","825048000",50154,3786.89,"883766000","793295000","Collin County","PLANO",75075,"7524","11-City: Large",33.018521,-96.746043,4803,"1-Metropolitan Area",49400,3638.01
"251","TX","38981",2022,1539488436,133444655,100160353,0,198628115,0,1867178470,642956131,780810740,902727160,"4807710","Aldine Independent School District","Texas",67259,4200.14,"808024000","771454000",63302,4243.82,"884055000","818824000","Harris County","HOUSTON",77073,NA,"21-Suburb: Large",30.003612,-95.389625,4818,"1-Metropolitan Area",61633,3990.7
"252","TX","38892",2022,5117424277,470557010,303114994,0,569594378,0,6031492924,1785978253,2127179752,2378029978,"4816230","Dallas Independent School District","Texas",153861,9989.46,"2222969000","2240796000",145113,10265.92,"2213643000","2422714000","Dallas County","DALLAS",75231,NA,"11-City: Large",32.87655,-96.768441,4832,"1-Metropolitan Area",143558,9873.5
"253","TX","38988",2022,4017192671,625331314,261676905,0,531819720,0,6645999476,334694213,2733855715,3143925418,"4823640","Houston Independent School District","Texas",210061,11770.28,"2678991000","2751715000",196943,11750.11,"2622407000","2620063000","Harris County","HOUSTON",77092,"8501","11-City: Large",29.802507,-95.454267,4802,"1-Metropolitan Area",194607,10982.91
"254","TX","38990",2022,2922065682,142808791,120591481,0,244188502,0,3162247613,842499353,1105704784,1171057117,"4825170","Katy Independent School District","Texas",83423,5602.56,"1047002000","1069512000",84176,5881.77,"1079966000","1088519000","Fort Bend County","KATY",77494,"1057","21-Suburb: Large",29.7803,-95.8327,4822,"1-Metropolitan Area",88368,6080.62
"255","TX","38940",2022,2238763485,163137623,114694828,0,226752430,0,2024515560,257159635,979717663,983531628,"4819650","Fort Bend Independent School District","Texas",77756,4876.16,"907541000","1060750000",76735,5054.75,"920232000","1165638000","Fort Bend County","SUGAR LAND",77479,"2308","21-Suburb: Large",29.58887,-95.622211,4822,"1-Metropolitan Area",77545,5019.98
"256","TX","38819",2022,1856368896,109611476,81593041,0,183769031,0,1941826628,526522038,739975203,843447483,"4832940","North East Independent School District","Texas",64539,4255.59,"759969000","769730000",60483,4224.64,"773233000","713563000","Bexar County","SAN ANTONIO",78217,NA,"11-City: Large",29.521666,-98.456886,4821,"1-Metropolitan Area",59830,4001.53
"257","FL","98989",2022,815147783,106346768,250868681,0,48799141,0,1849325066,135949857,1252803438,1400686936,"1201590","School District of Polk County","Florida",102952,5856,"1214768000","1182799000",100495,5865,"1186101000","1295313000","Polk County","BARTOW",33830,"7124","22-Suburb: Mid-size",27.87546,-81.846336,1217,"1-Metropolitan Area",105422,5927
"258","FL","102323",2022,1985696688,203267604,559308621,0,48695858,0,7604027178,752029942,2528667847,3077292844,"1201440","Orange County District School Board","Florida",208875,11946,"2658681000","2665506000",199089,11757,"2801991000","2627445000","Orange County","ORLANDO",32801,"1129","21-Suburb: Large",28.55013,-81.385021,1210,"1-Metropolitan Area",203224,11386
"259","PA","87525",2022,8177981593,759353591,3253100000,0,208300000,0,4098528125,1548520042,4272581672,4651065458,"4218990","School District of Philadelphia","Pennsylvania",130617,7789.23,"3705298000","3967179000",124111,7855.67,"3812902000","3899835000","Philadelphia County","Philadelphia",19130,NA,"11-City: Large",39.96101,-75.162641,4203,"1-Metropolitan Area",118053,7968.97
"260","NC","36675",2022,2479311312,141417385,312359922,0,1808842283,967363,4485265347,306652440,1890940187,2291155195,"3704720","Wake County Board of Education","North Carolina",163404,10449.95,"1680930000","1935687000",159802,10515.93,"1709851000","1903899000","Wake County","Cary",27518,"9227","11-City: Large",35.754138,-78.736509,3704,"1-Metropolitan Area",160099,10961.49
"261","TX","38905",2022,1607779084,83756806,70028626,0,143876935,0,1880814284,454536743,674570671,763197979,"4827300","Lewisville Independent School District","Texas",52189,3605.73,"735535000","870650000",49361,3691.7,"694752000","817532000","Denton County","LEWISVILLE",75067,"2616","21-Suburb: Large",33.044284,-97.035084,4826,"1-Metropolitan Area",49205,3752.34
"262","TX","38993",2022,1125132099,102934443,92055497,0,177646693,0,1393032636,311387594,681521250,731622584,"4834320","Pasadena Independent School District","Texas",52878,3736.03,"648851000","656620000",50614,3752.34,"671489000","654920000","Harris County","PASADENA",77502,NA,"21-Suburb: Large",29.678147,-95.191679,4829,"1-Metropolitan Area",49326,3828.17
"263","CO","32036",2022,1847264298,92707731,845137624,0,40888024,0,1384200573,478176864,493566705,866999574,"0802910","Cherry Creek School District No 5","Colorado",56228,3234.26,"782035000","782350000",54184,3367.93,"798786000","781829000","Arapahoe County","GREENWOOD VILLAGE",80111,"1394","11-City: Large",39.631056,-104.884328,806,"1-Metropolitan Area",53587,3194.09
"264","FL","32378",2022,374831507,25855793,157178954,0,4668040,0,1338386580,433224419,688056751,770897526,"1200330","Collier County District School Board","Florida",47834,2786.05,"670634000","653870000",46329,2713.75,"691957000","656509000","Collier County","NAPLES",34109,"919","21-Suburb: Large",26.220768,-81.758198,1219,"1-Metropolitan Area",47617,2847.74
"265","CA","146325",2022,2597539043,224468544,480681147,0,401299005,0,2846203810,1072674036,1114588767,1281497291,"0622500","Long Beach Unified School District","California",71712,0,"1173998000","1215628000",69413,2808.82,"1266461000","1163778000","Los Angeles County","Long Beach",90810,"1839","11-City: Large",33.82892,-118.213761,647,"1-Metropolitan Area",67292,2738.24
"266","UT","39313",2022,612899141,93272418,0,65971070,0,65971070,1451413933,606336140,674110332,819673603,"4900210","Davis School District","Utah",74773,3055.61,"714113000","703172000",72082,NA,"740335000","705134000","Davis County","Farmington",84025,NA,"21-Suburb: Large",40.980796,-111.886593,4902,"1-Metropolitan Area",74486,3061.45
"267","CO","32057",2022,2221930001,173055116,1032420784,0,49949079,0,1891292014,85512482,566942357,980930517,"0804800","Jefferson County School District No R-1","Colorado",84078,4726.72,"1111695000","1118672000",80099,4700.91,"1066060000","1181318000","Jefferson County","GOLDEN",80401,"1","21-Suburb: Large",39.73862,-105.164489,807,"1-Metropolitan Area",76904,4722.6
"268","GA","70979",2022,1272945793,148831339,481981956,0,578951041,0,3026295946,840629404,1275648325,1611502864,"1302280","Fulton County Board of Education","Georgia",93897,6364.3,"1444142000","1360735000",90300,6261.2,"1425565000","1326695000","Fulton County","Atlanta",30315,NA,"21-Suburb: Large",33.68066,-84.414261,1305,"1-Metropolitan Area",90355,6167.3
"269","FL","68696",2022,4101087000,365083000,717399000,0,218703000,0,4924977000,1024536000,3098004000,3345977000,"1200180","The School Board of Broward County","Florida",269172,14111.43,"3003196000","3148988000",260235,13737.49,"2979069000","3179172000","Broward County","FORT LAUDERDALE",33301,"3125","21-Suburb: Large",26.114594,-80.139472,1222,"1-Metropolitan Area",256037,13341.46
"270","FL","70626",2022,677407707,83282349,166740065,0,52779620,0,1596030940,148848061,692783836,784666880,"1201920","Volusia County District School Board","Florida",63009,3844.04,"671121000","668962000",61088,3664.93,"717538000","673085000","Volusia County","DELAND",32720,"4207","13-City: Small",29.030183,-81.308481,1206,"1-Metropolitan Area",62666,3782.92
"271","VA","1250804",2022,1327976395,216248885,636300637,0,347197802,0,2698743765,522437929,1626827252,1740091007,"5102250","Loudoun County Public Schools","Virginia",83606,5995.09,"1382367000","1493054000",81066,6114.58,"1508890000","1533826000","Loudoun County","Ashburn",20148,NA,"21-Suburb: Large",39.0337,-77.517751,5110,"1-Metropolitan Area",81131,5924
"272","AZ","30554",2022,933067958,74023084,438021553,0,0,0,1102147366,479130145,737710699,770276105,"0404970","Mesa Unified School District No.4","Arizona",62703,3274.31,"630987000","619835000",57956,3321.27,"704867000","681325000","Maricopa County","MESA",85201,"7422","11-City: Large",33.4147,-111.829291,409,"1-Metropolitan Area",58859,3476.15
"273","LA","76062",2022,1254771469,109659627,287711839,0,558494795,0,1019884523,666512546,772876334,897502814,"2200840","Jefferson Parish Public School System","Louisiana",49862,2362.9,"671932000","633269000",48160,2302.73,"730466000","665419000","Jefferson Parish","Harvey",70058,"3585","21-Suburb: Large",29.8864,-90.055,2202,"1-Metropolitan Area",46896,2186.31
"274","MI","161679",2022,1813478537,61273045,0,0,0,0,46301197,46301197,76902950,184659192,"2601103","Detroit Community Schools","Michigan",50644,3106.83,"882259000","832841000",48782,3074.53,"932712000","872308000","Wayne County","DETROIT",48202,"3085","11-City: Large",42.36924,-83.076781,2613,"1-Metropolitan Area",48536,3143.83
"275","VA","1265776",2022,691651798,110742777,374959932,1594224,144993753,167335,953082353,384690711,952286866,1091463736,"5103840","School Board of The City of Virginia Beach","Virginia",68706,4244.49,"875527000","932013000",65612,4354.66,"929419000","936164000","Virginia Beach city","Virginia Beach",23456,"6038","11-City: Large",36.751983,-76.059624,5102,"1-Metropolitan Area",65450,4238
"276","CA","146595",2022,2775479417,0,0,0,1038791715,0,0,0,1219446138,1528126847,"0634410","San Francisco Unified School District","California",52811,0,"1171190000","1189503000",51790,2501.58,"1228255000","1161029000","San Francisco County","San Francisco",94102,"5207","11-City: Large",37.779253,-122.422153,612,"1-Metropolitan Area",49204,2547.13
"277","FL","165645",2022,831526613,72468700,284255138,0,47375605,0,1538858062,203792195,1454171462,1622124555,"1200480","Duval County Public Schools","Florida",130279,6851,"1329442000","1282135000",126815,6539,"1436463000","1354660000","Duval County","JACKSONVILLE",32207,"8152","11-City: Large",30.317393,-81.650348,1204,"1-Metropolitan Area",128948,7126
