"","ncesID","id","year","name","total_liabilities","net_pension_liability","net_opeb_liability","net_pension_assets","net_opeb_assets","expenses","revenues","state.name","state.abb","enrollment_20","fte_20","revenue_nces_20","expenditure_nces_20","enrollment_21","fte_21","revenue_nces_21","expenditure_nces_21","county","city","zip","zip4","locale","latitude","longitude","congresstional_code","metro_code","enrollment_22","fte_22"
"1","1201560","69989",2020,"District School Board of Pinellas County",931076698,608061187,52281715,0,0,1165276481,1129321171,"Florida","FL",99772,7379.84,1112631000,1159835000,96068,6829.44,1203245000,1231545000,"Pinellas County","LARGO",33770,3536,"11-City: Large",27.914041,-82.793562,1213,"1-Metropolitan Area",95446,6007.53
"2","2102990","33679",2020,"Jefferson County Board of Education",1662666688,534348849,431036181,0,0,1591239863,1572818250,"Kentucky","KY",100348,6160.96,1491611000,1564381000,95911,6236.39,1599691000,1603292000,"Jefferson County","Louisville",40218,NA,"11-City: Large",38.1995,-85.6851,2103,"1-Metropolitan Area",94393,6223.52
"3","1201080","32402",2020,"The School District of Lee County",1278007845,486925058,50552528,0,0,1102540344,1150757420,"Florida","FL",95613,5194.6,1161742000,1103854000,94927,5156.15,1185267000,1151329000,"Lee County","FORT MYERS",33966,1012,"21-Suburb: Large",26.5997,-81.8536,1219,"1-Metropolitan Area",97264,5170.54
"4","2400480","33968",2020,"Montgomery County Public Schools",3663139490,554333453,2616173765,0,0,3093834900,3195067624,"Maryland","MD",165267,11289.73,3473558000,3261751000,160564,11510.59,3587838000,3183090000,"Montgomery County","Rockville",20850,NA,"21-Suburb: Large",39.095191,-77.158219,2408,"1-Metropolitan Area",158231,11605.84
"5","1201530","148148",2020,"Pasco County District School Board",1220077040,397711685,98611974,220109,0,801681147,823883566,"Florida","FL",76661,4650.93,819581000,807965000,77125,4790.18,888274000,928434000,"Pasco County","LAND O LAKES",34638,2826,"21-Suburb: Large",28.262694,-82.477158,1212,"1-Metropolitan Area",81157,4711.88
"6","1201230","148130",2020,"Manatee County District School Board",651729633,278088728,11302048,0,0,638104506,618558687,"Florida","FL",50088,2945.63,606069000,604864000,49181,2856.84,642636000,618914000,"Manatee County","BRADENTON",34205,8840,"21-Suburb: Large",27.494847,-82.564795,1216,"1-Metropolitan Area",50248,2928.34
"7","3700011","36539",2020,"Cumberland County Board of Education",746287666,183778157,490843482,0,676022,517377178,508669063,"North Carolina","NC",50750,3421.89,511445000,515721000,49278,3434.3,508036000,532708000,"Cumberland County","Fayetteville",28306,NA,"12-City: Mid-size",35.0142,-78.896331,3709,"1-Metropolitan Area",48860,3516.85
"8","1500030","71050",2020,"Hawaii Department of Education",568157654,0,0,0,0,3261774036,3449583662,"Hawaii","HI",181088,12220.77,3396555000,3214490000,176441,12145.4,3241890000,3115265000,"Honolulu County","Honolulu",96813,NA,"21-Suburb: Large",21.309338,-157.855285,1501,"1-Metropolitan Area",173178,12026.2
"9","2400120","171323",2020,"Board of Education of Baltimore County",2428010000,137969000,2045949000,0,0,2125318000,1955757000,"Maryland","MD",115038,7629.7,2001257000,1948149000,111084,7821.41,2000658000,1930683000,"Baltimore County","Towson",21204,NA,"21-Suburb: Large",39.404025,-76.63021,2403,"1-Metropolitan Area",111136,7684.77
"10","1201740","196483",2020,"St. Johns County School District",510351766,212334986,26203755,0,0,457213491,517943041,"Florida","FL",43628,2427.1,485351000,466766000,44550,2445.77,529241000,545492000,"St. Johns County","ST AUGUSTINE",32084,3633,"41-Rural: Fringe",29.897871,-81.315877,1204,"1-Metropolitan Area",48032,2600.17
"11","2400090","44313",2020,"Baltimore City Public School System",426185000,0,0,0,0,1446826000,1711671000,"Maryland","MD",79187,4932.9,1708612000,1647371000,77856,5063.13,1672842000,1609484000,"Baltimore city","Baltimore",21202,NA,"11-City: Large",39.312016,-76.613209,2407,"1-Metropolitan Area",77807,5109.6
"12","3701500","196971",2020,"Winston-Salem/Forsyth County Schools-Board of Education",895217484,213912827,605527697,0,785188,604705844,604938088,"North Carolina","NC",54566,3765.57,560848000,577002000,51843,3635.2,581315000,624108000,"Forsyth County","Winston Salem",27105,NA,"12-City: Mid-size",36.17996,-80.281211,3705,"1-Metropolitan Area",52681,3593.91
"13","1200390","69706",2020,"The School Board of Miami-Dade County",6325737000,1948945000,201343000,0,0,4314370000,4120010000,"Florida","FL",347307,18373,4055452000,4111909000,334261,16758,4324851000,4158104000,"Miami-Dade County","MIAMI",33132,1308,"21-Suburb: Large",25.78893,-80.190942,1224,"1-Metropolitan Area",328589,17365
"14","0803360","1237862",2020,"City And County of Denver School District No. 1",3548501249,400400429,54122079,0,0,1413151847,1560645403,"Colorado","CO",92143,6149.47,1588186000,1605362000,89081,6120.67,1615429000,1593940000,"Denver County","DENVER",80203,2996,"11-City: Large",39.74575,-104.985751,801,"1-Metropolitan Area",88911,6140.88
"15","1201470","198253",2020,"Osceola County District School Board",629910852,297815602,15687722,0,0,709946823,795253071,"Florida","FL",69925,4045.71,783041000,728329000,68640,3925.91,840959000,743210000,"Osceola County","KISSIMMEE",34744,4492,"21-Suburb: Large",28.298868,-81.361335,1209,"1-Metropolitan Area",72427,3600.57
"16","1709930","198265",2020,"Chicago Board of Education",27536280000,14127342000,2554892000,0,0,8034274000,6953478000,"Illinois","IL",347484,21943.44,6933320000,7130321000,341382,NA,7446508000,7481077000,"Cook County","Chicago",60602,4413,"11-City: Large",41.882233,-87.628809,1707,"1-Metropolitan Area",329836,22797.43
"17","0634320","146593",2020,"San Diego Unified School District",6421488110,1449568000,135880213,0,0,1875674718,1987911916,"California","CA",102270,0,2101817000,2309589000,97968,4266.88,2239718000,2247111000,"San Diego County","San Diego",92103,2682,"11-City: Large",32.754564,-117.147475,653,"1-Metropolitan Area",95233,4289.35
"18","0609850","146048",2020,"Corona-Norco Unified School District",1511591818,625815620,76877208,0,0,740906139,699973014,"California","CA",52557,0,695202000,710246000,51318,2062.96,759981000,697555000,"Riverside County","Norco",92860,1903,"12-City: Mid-size",33.922685,-117.561634,642,"1-Metropolitan Area",50889,2076.56
"19","0614550","146154",2020,"Fresno Unified School District",3034261964,942203000,1019190619,0,0,1233813509,1166709424,"California","CA",71265,0,1163319000,1160647000,70088,2159.3,1286872000,1219665000,"Fresno County","Fresno",93721,2287,"11-City: Large",36.73666,-119.787071,616,"1-Metropolitan Area",69873,3548.96
"20","0622710","146329",2020,"Los Angeles Unified School District",29653109000,7446273000,8578152000,0,0,9320067000,9124800000,"California","CA",483234,0,9721115000,9632193000,460633,21872.95,11112479000,9900601000,"Los Angeles County","Los Angeles",90017,1466,"11-City: Large",34.056169,-118.257348,634,"1-Metropolitan Area",435958,21893.94
"21","4820340","38895",2020,"Garland Independent School District",1028867238,176503815,204393433,0,0,653022063,692323253,"Texas","TX",55701,3594.08,662541000,617003000,53921,3609.3,646979000,611815000,"Dallas County","GARLAND",75042,7108,"21-Suburb: Large",32.90868,-96.683861,4805,"1-Metropolitan Area",53674,3448.14
"22","3701920","36571",2020,"Guilford County Board of Education",1173118351,301635944,804006602,0,1114168,822101070,796869443,"North Carolina","NC",72682,4688.43,788567000,787207000,70047,4770.13,819880000,820562000,"Guilford County","Greensboro",27401,NA,"11-City: Large",36.08087,-79.793191,3713,"1-Metropolitan Area",69173,4757.33
"23","0803450","32045",2020,"Douglas County School District Re.1",1545454919,864936787,42529387,0,0,619988621,809862038,"Colorado","CO",67305,3680.47,855927000,854698000,62979,3664.71,831121000,869311000,"Douglas County","CASTLE ROCK",80108,NA,"21-Suburb: Large",39.375981,-104.859375,804,"1-Metropolitan Area",63596,3609.66
"24","1201710","32425",2020,"Seminole County Public Schools",601902285,346916779,18813350,0,0,666147076,682225811,"Florida","FL",68096,3571.49,682448000,674976000,66226,3307.17,724493000,669438000,"Seminole County","SANFORD",32773,7125,"21-Suburb: Large",28.75788,-81.284129,1207,"1-Metropolitan Area",66729,3543.27
"25","1200870","32396",2020,"The School District of Hillsborough County",2502458869,1166977434,208572211,0,0,2466616138,2451375686,"Florida","FL",223305,13538.5,2423595000,2479463000,218943,13710.99,2563752000,2430968000,"Hillsborough County","TAMPA",33602,3502,"21-Suburb: Large",27.949214,-82.452317,1214,"1-Metropolitan Area",224149,13001.82
"26","1302220","32567",2020,"Forsyth County Board of Education",1482624205,445614082,305628089,0,0,608582855,619104806,"Georgia","GA",50544,3078.1,613976000,694258000,51152,3157.3,648257000,694228000,"Forsyth County","Cumming",30040,NA,"21-Suburb: Large",34.23248,-84.120841,1307,"1-Metropolitan Area",52757,3206.5
"27","4808700","39189",2020,"Arlington Independent School District",1643859113,202083399,231749147,0,0,756774370,759674721,"Texas","TX",59532,4039.63,723448000,733561000,56840,4114.71,735050000,780567000,"Tarrant County","ARLINGTON",76011,NA,"11-City: Large",32.70982,-97.124471,4806,"1-Metropolitan Area",56311,3923.88
"28","4815000","39105",2020,"Conroe Independent School District",1873250052,169824823,205866828,0,0,730581396,742306470,"Texas","TX",64799,3930.12,712178000,715341000,64563,4110.6,769389000,825633000,"Montgomery County","CONROE",77304,NA,"12-City: Mid-size",30.320576,-95.486046,4808,"1-Metropolitan Area",67761,4239.57
"29","4808940","39211",2020,"Austin Independent School District",2497995416,118517031,302775488,0,0,1672957566,1757890245,"Texas","TX",80911,5484.07,1698034000,1951250000,74871,5508.22,1634054000,2001453000,"Travis County","AUSTIN",78704,NA,"11-City: Large",30.218592,-97.753379,4835,"1-Metropolitan Area",74602,5238.78
"30","4819700","39194",2020,"Fort Worth Independent School District",2010513068,305150969,352419124,0,0,1074969265,1118553390,"Texas","TX",82891,5569.24,1029305000,1111041000,76858,5488.23,1140461000,1268455000,"Tarrant County","FORT WORTH",76107,3010,"11-City: Large",32.760407,-97.360455,4812,"1-Metropolitan Area",74850,5069.52
"31","4900360","39321",2020,"Granite School District",604234008,214554003,1982613,0,0,675672751,696323176,"Utah","UT",66276,2810.25,679625000,707146000,63430,NA,694821000,723646000,"Salt Lake County","SALT LAKE CITY",84115,NA,"21-Suburb: Large",40.716144,-111.889344,4904,"1-Metropolitan Area",62544,2785.77
"32","4900420","39322",2020,"Jordan School District",505146280,154946340,2387087,0,0,538949305,534505057,"Utah","UT",57771,2535.29,513408000,566852000,57267,NA,553262000,571457000,"Salt Lake County","WEST JORDAN",84084,NA,"21-Suburb: Large",40.61707,-111.983991,4904,"1-Metropolitan Area",59363,2632.94
"33","4838080","39253",2020,"Round Rock Independent School District",1540696369,124392763,165202836,0,0,621266430,633743617,"Texas","TX",50953,3537.26,592934000,595621000,48302,3562.27,581534000,730026000,"Williamson County","ROUND ROCK",78681,4941,"12-City: Mid-size",30.511455,-97.697025,4831,"1-Metropolitan Area",47167,3450.84
"34","5307710","39643",2020,"Seattle School District No.1",123970331,295248620,0,0,0,1188817592,1263718387,"Washington","WA",55986,3238.68,1218512000,1131647000,53973,3377.56,1302978000,1114357000,"King County","SEATTLE",98134,1165,"11-City: Large",47.580836,-122.330963,5307,"1-Metropolitan Area",51443,3110.54
"35","5509600","40012",2020,"Milwaukee Public Schools",1413229033,187257004,762277112,76455593,0,1268266817,1208173119,"Wisconsin","WI",74683,4388.34,1210952000,1211356000,71510,4345.15,1300595000,1251877000,"Milwaukee County","Milwaukee",53208,2627,"11-City: Large",43.04813,-87.979731,5504,"1-Metropolitan Area",69115,4269.89
"36","3174820","35480",2020,"Omaha City School District 1",1787588000,848152000,24055000,0,0,937158000,852021000,"Nebraska","NE",53483,3498.07,783830000,816217000,51914,3259.94,765346000,990674000,"Douglas County","OMAHA",68131,2024,"11-City: Large",41.267518,-95.960099,3102,"1-Metropolitan Area",51626,3445.22
"37","2400420","41713",2020,"Howard County Board of Education",1031229897,50666596,849712337,0,0,1112467221,1082067035,"Maryland","MD",58868,4324.5,1085574000,1054436000,57293,4241,1158890000,1083360000,"Howard County","Ellicott City",21042,NA,"21-Suburb: Large",39.235639,-76.889606,2407,"1-Metropolitan Area",57325,4258.4
"38","1301740","105280",2020,"Dekalb County Board of Education",2301940046,1122765085,770250780,0,0,1431948985,1466773135,"Georgia","GA",98800,6892.6,1480388000,1415756000,93470,7108.9,1542598000,1363065000,"DeKalb County","Decatur",30032,NA,"21-Suburb: Large",33.832661,-84.194543,1304,"1-Metropolitan Area",93473,6676.1
"39","4501440","43341",2020,"Charleston County School District",2050410740,583236524,501590758,0,0,794107999,895123983,"South Carolina","SC",50299,3462.4,973407000,952265000,48330,3586.55,1040191000,984936000,"Charleston County","Charleston",29401,NA,"12-City: Mid-size",32.7879,-79.930751,4501,"1-Metropolitan Area",49331,3822.48
"40","3200060","35528",2020,"Clark County School District",7278369954,3186524832,281606000,0,0,3532293031,3748080450,"Nevada","NV",328991,16490,3780288000,3772124000,315646,14395,3813021000,3820370000,"Clark County","LAS VEGAS",89146,NA,"11-City: Large",36.145349,-115.211177,3201,"1-Metropolitan Area",315787,NA
"41","1301230","48791",2020,"Clayton County Board of Education",916357252,467584423,347674422,0,0,619302155,655624753,"Georgia","GA",54424,3151.5,659093000,646512000,52149,3292.6,711007000,661256000,"Clayton County","Jonesboro",30236,NA,"21-Suburb: Large",33.53653,-84.357071,1313,"1-Metropolitan Area",52335,3259.1
"42","3702970","36608",2020,"Charlotte-Mecklenburg Board of Education",2559051000,622449000,1688234000,0,2319000,1700351000,1799355000,"North Carolina","NC",149845,9183.03,1629822000,1928007000,142733,9284.44,1676922000,2079414000,"Mecklenburg County","Charlotte",28208,NA,"11-City: Large",35.187118,-80.889273,3712,"1-Metropolitan Area",143244,9030.26
"43","3200480","35535",2020,"Washoe County School District",2191603737,716187044,196695810,0,0,781154443,770757665,"Nevada","NV",67301,3875,794783000,914736000,64584,3994,811167000,913412000,"Washoe County","RENO",89520,NA,"11-City: Large",39.53761,-119.810017,3202,"1-Metropolitan Area",65538,NA
"44","4900030","39330",2020,"Alpine School District",1059030997,185909219,66222363,0,0,768957816,758243762,"Utah","UT",83540,3253.9,737336000,851034000,82800,NA,803172000,820336000,"Utah County","American Fork",84003,NA,"21-Suburb: Large",40.388401,-111.79653,4903,"1-Metropolitan Area",86275,3308.62
"45","4820010","38875",2020,"Frisco Independent School District",2771800196,182078056,195016124,0,0,832675941,820388165,"Texas","TX",62705,4279.4,733330000,800767000,63493,4388.91,741665000,877989000,"Collin County","FRISCO",75035,NA,"21-Suburb: Large",33.124631,-96.796882,4803,"1-Metropolitan Area",65825,4407.63
"46","4818300","38929",2020,"El Paso Independent School District",1635139177,165283406,214670423,0,0,709583644,713146693,"Texas","TX",55253,3828.65,688716000,871968000,50661,3730.52,676551000,877310000,"El Paso County","EL PASO",79902,NA,"11-City: Large",31.765784,-106.491527,4816,"1-Metropolitan Area",50769,3511.69
"47","4835100","38877",2020,"Plano Independent School District",1471969476,174271009,198353587,0,0,872168012,929400425,"Texas","TX",52629,3855.13,864934000,825048000,50154,3786.89,883766000,793295000,"Collin County","PLANO",75075,7524,"11-City: Large",33.018521,-96.746043,4803,"1-Metropolitan Area",49400,3638.01
"48","4807710","38981",2020,"Aldine Independent School District",1730907415,206674704,244402754,0,0,838250145,850679006,"Texas","TX",67259,4200.14,808024000,771454000,63302,4243.82,884055000,818824000,"Harris County","HOUSTON",77073,NA,"21-Suburb: Large",30.003612,-95.389625,4818,"1-Metropolitan Area",61633,3990.7
"49","4816230","38892",2020,"Dallas Independent School District",4757887523,595195671,690114814,0,0,2185683004,2323118295,"Texas","TX",153861,9989.46,2222969000,2240796000,145113,10265.92,2213643000,2422714000,"Dallas County","DALLAS",75231,NA,"11-City: Large",32.87655,-96.768441,4832,"1-Metropolitan Area",143558,9873.5
"50","4823640","38988",2020,"Houston Independent School District",4918438580,594268532,716497750,0,0,2707336003,2881150552,"Texas","TX",210061,11770.28,2678991000,2751715000,196943,11750.11,2622407000,2620063000,"Harris County","HOUSTON",77092,8501,"11-City: Large",29.802507,-95.454267,4802,"1-Metropolitan Area",194607,10982.91
"51","4825170","38990",2020,"Katy Independent School District",2787669152,223796599,281189550,0,0,1072886090,1089968833,"Texas","TX",83423,5602.56,1047002000,1069512000,84176,5881.77,1079966000,1088519000,"Fort Bend County","KATY",77494,1057,"21-Suburb: Large",29.7803,-95.8327,4822,"1-Metropolitan Area",88368,6080.62
"52","4819650","38940",2020,"Fort Bend Independent School District",1939809685,206732032,270110960,0,0,1063607180,971061938,"Texas","TX",77756,4876.16,907541000,1060750000,76735,5054.75,920232000,1165638000,"Fort Bend County","SUGAR LAND",77479,2308,"21-Suburb: Large",29.58887,-95.622211,4822,"1-Metropolitan Area",77545,5019.98
"53","4823910","44074",2020,"Humble Independent School District",1216359655,121906407,149154126,0,0,583818039,574949495,"Texas","TX",45078,2931.02,539996000,572059000,45528,3123.61,592505000,715739000,"Harris County","HUMBLE",77338,NA,"21-Suburb: Large",30.012879,-95.267822,4802,"1-Metropolitan Area",48112,3200.11
"54","0802910","32036",2020,"Cherry Creek School District No 5",1931718440,1074427362,52826631,0,0,569719633,770750774,"Colorado","CO",56228,3234.26,782035000,782350000,54184,3367.93,798786000,781829000,"Arapahoe County","GREENWOOD VILLAGE",80111,1394,"11-City: Large",39.631056,-104.884328,806,"1-Metropolitan Area",53587,3194.09
"55","1200330","32378",2020,"Collier County District School Board",600855011,296446043,5027106,0,0,704647470,691047972,"Florida","FL",47834,2786.05,670634000,653870000,46329,2713.75,691957000,656509000,"Collier County","NAPLES",34109,919,"21-Suburb: Large",26.220768,-81.758198,1219,"1-Metropolitan Area",47617,2847.74
"56","4900210","39313",2020,"Davis School District",889548468,181144594,0,0,0,694223529,728477766,"Utah","UT",74773,3055.61,714113000,703172000,72082,NA,740335000,705134000,"Davis County","Farmington",84025,NA,"21-Suburb: Large",40.980796,-111.886593,4902,"1-Metropolitan Area",74486,3061.45
"57","1200180","68696",2020,"The School Board of Broward County",4251168000,1419517000,216322000,0,0,3132393000,3041050000,"Florida","FL",269172,14111.43,3003196000,3148988000,260235,13737.49,2979069000,3179172000,"Broward County","FORT LAUDERDALE",33301,3125,"21-Suburb: Large",26.114594,-80.139472,1222,"1-Metropolitan Area",256037,13341.46
"58","3500060","35931",2020,"Albuquerque Municipal School District No. 12",2397848787,1284568723,363064860,0,0,572543455,1131467933,"New Mexico","NM",88312,6183.24,1228951000,1147156000,83031,6050.39,1169123000,1201928000,"Bernalillo County","ALBUQUERQUE",87110,NA,"11-City: Large",35.102965,-106.572756,3501,"1-Metropolitan Area",81762,6029.47
"59","1201920","70626",2020,"Volusia County District School Board",791182331,338806631,18586161,0,0,669777965,663782752,"Florida","FL",63009,3844.04,671121000,668962000,61088,3664.93,717538000,673085000,"Volusia County","DELAND",32720,4207,"13-City: Small",29.030183,-81.308481,1206,"1-Metropolitan Area",62666,3782.92
"60","2400060","41282",2020,"Anne Arundel County Board of Education",2182951319,64243619,1859904000,0,0,1405044746,1481594562,"Maryland","MD",84984,5787,1457055000,1501275000,83044,5957.47,1469198000,1465525000,"Anne Arundel County","Annapolis",21401,NA,"21-Suburb: Large",38.97612,-76.559401,2404,"1-Metropolitan Area",83163,6013.61
"61","1301290","70971",2020,"Cobb County School District",2217236000,1158513000,755723000,0,0,1465479000,1517922000,"Georgia","GA",112097,7361.8,1504214000,1528033000,107379,7347.7,1577457000,1456244000,"Cobb County","Marietta",30061,NA,"21-Suburb: Large",33.938441,-84.538051,1311,"1-Metropolitan Area",106970,7331.5
"62","1300120","70961",2020,"School District Atlanta Public Schools",1457874182,926762156,348020497,0,0,957538019,1064997400,"Georgia","GA",52416,4025.5,1230648000,1032605000,51012,4099.2,1127638000,1041310000,"Fulton County","Atlanta",30335,NA,"11-City: Large",33.748278,-84.392176,1305,"1-Metropolitan Area",49994,4076.9
"63","3704720","36675",2020,"Wake County Board of Education",2749372028,691000187,1855820546,0,2555383,1818653565,1970695735,"North Carolina","NC",163404,10449.95,1680930000,1935687000,159802,10515.93,1709851000,1903899000,"Wake County","Cary",27518,9227,"11-City: Large",35.754138,-78.736509,3704,"1-Metropolitan Area",160099,10961.49
"64","4218990","87525",2020,"School District of Philadelphia",8193140034,3571478000,179300000,0,0,3931250090,3861891368,"Pennsylvania","PA",130617,7789.23,3705298000,3967179000,124111,7855.67,3812902000,3899835000,"Philadelphia County","Philadelphia",19130,NA,"11-City: Large",39.96101,-75.162641,4203,"1-Metropolitan Area",118053,7968.97
"65","4700148","87787",2020,"Board of Education of Shelby County",958891499,181063,879359591,190965425,0,1162335680,1336828018,"Tennessee","TN",113198,6897,1347179000,1395085000,110780,6546.09,1385982000,1382789000,"Shelby County","Memphis",38112,NA,"11-City: Large",35.130137,-89.975672,4709,"1-Metropolitan Area",105596,6694.54
"66","4827300","38905",2020,"Lewisville Independent School District",2016853986,159467259,183776610,0,0,675866265,752269010,"Texas","TX",52189,3605.73,735535000,870650000,49361,3691.7,694752000,817532000,"Denton County","LEWISVILLE",75067,2616,"21-Suburb: Large",33.044284,-97.035084,4826,"1-Metropolitan Area",49205,3752.34
"67","4834320","38993",2020,"Pasadena Independent School District",1358873648,209167194,237273584,0,0,713080606,681880739,"Texas","TX",52878,3736.03,648851000,656620000,50614,3752.34,671489000,654920000,"Harris County","PASADENA",77502,NA,"21-Suburb: Large",29.678147,-95.191679,4829,"1-Metropolitan Area",49326,3828.17
"68","4502310","38341",2020,"The School District of Greenville County",2523154282,895763981,760663343,0,0,940707649,954914212,"South Carolina","SC",77302,5003.8,1004916000,930194000,74094,4990.38,1058506000,984000000,"Greenville County","Greenville",29601,NA,"21-Suburb: Large",34.8439,-82.396061,4504,"1-Metropolitan Area",76939,5133.93
"69","4816110","38984",2020,"Cypress-Fairbanks Independent School District",4145823676,354920841,416699640,0,0,1433416147,1382684090,"Texas","TX",117446,7375.24,1313144000,1401690000,114881,7659.35,1391872000,1582191000,"Harris County","HOUSTON",77065,4208,"21-Suburb: Large",29.922756,-95.583673,4802,"1-Metropolitan Area",117217,7682.15
"70","4833120","38820",2020,"Northside Independent School District",3032820362,330423641,386107674,0,0,1297554866,1322943080,"Texas","TX",107817,7001.95,1281221000,1325003000,103151,6844.94,1223549000,1344525000,"Bexar County","SAN ANTONIO",78238,1699,"11-City: Large",29.490785,-98.601414,4820,"1-Metropolitan Area",102377,6792.17
"71","4703690","107389",2020,"Rutherford County Schools",194241342,NA,137665254,56254755,NA,443132101,444774269,"Tennessee","TN",47458,3083.9,461443000,493333000,47186,3008.05,501384000,563614000,"Rutherford County","Murfreesboro",37128,NA,"21-Suburb: Large",35.812086,-86.403053,4704,"1-Metropolitan Area",49253,3082.8
"72","5102250","1250804",2020,"Loudoun County Public Schools",1674258721,993580040,403737216,0,0,1461289718,1497874074,"Virginia","VA",83606,5995.09,1382367000,1493054000,81066,6114.58,1508890000,1533826000,"Loudoun County","Ashburn",20148,NA,"21-Suburb: Large",39.0337,-77.517751,5110,"1-Metropolitan Area",81131,5924
"73","0612330","146106",2020,"Elk Grove Unified School District",1218599815,749359000,11770913,0,0,887739046,841645710,"California","CA",63660,0,838162000,860041000,63157,2722.23,940531000,877050000,"Sacramento County","Elk Grove",95624,1801,"21-Suburb: Large",38.41158,-121.373061,607,"1-Metropolitan Area",62229,2763.54
"74","0404970","30554",2020,"Mesa Unified School District No.4",897959189,468531459,0,0,0,618205248,644754580,"Arizona","AZ",62703,3274.31,630987000,619835000,57956,3321.27,704867000,681325000,"Maricopa County","MESA",85201,7422,"11-City: Large",33.4147,-111.829291,409,"1-Metropolitan Area",58859,3476.15
"75","2200840","76062",2020,"Jefferson Parish Public School System",1465097782,538799170,625990594,0,0,682745988,670081371,"Louisiana","LA",49862,2362.9,671932000,633269000,48160,2302.73,730466000,665419000,"Jefferson Parish","Harvey",70058,3585,"21-Suburb: Large",29.8864,-90.055,2202,"1-Metropolitan Area",46896,2186.31
"76","2601103","161679",2020,"Detroit Community Schools",2022392486,0,0,0,0,97774688,176048439,"MICHIGAN","MI",50644,3106.83,882259000,832841000,48782,3074.53,932712000,872308000,"Wayne County","DETROIT",48202,3085,"11-City: Large",42.36924,-83.076781,2613,"1-Metropolitan Area",48536,3143.83
"77","4832940","38819",2020,"North East Independent School District",2132074073,184611924,237167621,0,0,836862448,803857410,"Texas","TX",64539,4255.59,759969000,769730000,60483,4224.64,773233000,713563000,"Bexar County","SAN ANTONIO",78217,NA,"11-City: Large",29.521666,-98.456886,4821,"1-Metropolitan Area",59830,4001.53
"78","1201590","98989",2020,"School District of Polk County",1056455681,501853478,33902309,0,0,1118958295,1149637602,"Florida","FL",102952,5856,1214768000,1182799000,100495,5865,1186101000,1295313000,"Polk County","BARTOW",33830,7124,"22-Suburb: Mid-size",27.87546,-81.846336,1217,"1-Metropolitan Area",105422,5927
"79","5103840","1265776",2020,"School Board of The City of Virginia Beach",985168847,678825000,152746000,0,0,934488801,985726201,"Virginia","VA",68706,4244.49,875527000,932013000,65612,4354.66,929419000,936164000,"Virginia Beach city","Virginia Beach",23456,6038,"11-City: Large",36.751983,-76.059624,5102,"1-Metropolitan Area",65450,4238
"80","1201440","102323",2020,"Orange County District School Board",2680621894,1128084763,58851299,0,0,2518940161,2676919286,"Florida","FL",208875,11946,2658681000,2665506000,199089,11757,2801991000,2627445000,"Orange County","ORLANDO",32801,1129,"21-Suburb: Large",28.55013,-81.385021,1210,"1-Metropolitan Area",203224,11386
"81","0622500","146325",2020,"Long Beach Unified School District",3148525800,922386344,425718817,0,0,1123576999,1136009100,"California","CA",71712,0,1173998000,1215628000,69413,2808.82,1266461000,1163778000,"Los Angeles County","Long Beach",90810,1839,"11-City: Large",33.82892,-118.213761,647,"1-Metropolitan Area",67292,2738.24
"82","0804800","32057",2020,"Jefferson County School District No R-1",2353743121,1347298359,66246238,0,0,731016376,1017567920,"Colorado","CO",84078,4726.72,1111695000,1118672000,80099,4700.91,1066060000,1181318000,"Jefferson County","GOLDEN",80401,1,"21-Suburb: Large",39.73862,-105.164489,807,"1-Metropolitan Area",76904,4722.6
"83","1200150","93779",2020,"Brevard District School Board County",970289235,393361434,17244106,0,0,809117325,802974791,"Florida","FL",73962,4515.1,800729000,791424000,70996,4397.07,834159000,780295000,"Brevard County","VIERA",32940,6601,"21-Suburb: Large",28.248696,-80.736704,1208,"1-Metropolitan Area",72497,4433.3
"84","1201500","93789",2020,"The School District of Palm Beach County",3401701000,1151170000,199429000,0,0,2568945000,2551761000,"Florida","FL",194675,11882.84,2591858000,2555723000,187057,11696.46,2744547000,2522461000,"Palm Beach County","WEST PALM BEACH",33406,5869,"21-Suburb: Large",26.64925,-80.093741,1221,"1-Metropolitan Area",187943,11554.7
"85","1302550","70981",2020,"Gwinnett County Board of Education",4534969007,1851016703,1187241718,0,0,2326752639,2365656996,"Georgia","GA",180589,11429,2354981000,2212800000,177401,11361.3,2344890000,2230587000,"Gwinnett County","Lawrenceville",30045,NA,"21-Suburb: Large",34.016948,-84.057792,1307,"1-Metropolitan Area",179581,11746.5
"86","4703180","107203",2020,"Metropolitan Nashville Public Schools",133188,0,0,0,0,6178324,6536060,"Tennessee","TN",85588,5529.6,1259031000,1151304000,80494,5245.5,1508635000,1215256000,"Davidson County","Nashville",37204,NA,"11-City: Large",36.1219,-86.766811,4705,"1-Metropolitan Area",80381,4856.29
"87","4825740","38991",2020,"Klein Independent School District",1688085132,171536152,192705677,0,0,572606002,622051034,"Texas","TX",54096,3530.5,594459000,555899000,52824,3617.09,629979000,618854000,"Harris County","KLEIN",77379,3299,"21-Suburb: Large",30.04787,-95.533248,4802,"1-Metropolitan Area",53294,3653.1
"88","1302280","70979",2020,"Fulton County Board of Education",1976650177,1091755582,660783856,0,0,1317115866,1409931971,"Georgia","GA",93897,6364.3,1444142000,1360735000,90300,6261.2,1425565000,1326695000,"Fulton County","Atlanta",30315,NA,"21-Suburb: Large",33.68066,-84.414261,1305,"1-Metropolitan Area",90355,6167.3
"89","5103130","1250808",2020,"Prince William County Public Schools",1241056033,0,0,880640955,159352777,1290526578,1408855587,"Virginia","VA",92237,5696.94,1302817000,1321655000,89548,5650.41,1425919000,1314351000,"Prince William County","Manassas",20112,NA,"21-Suburb: Large",38.63614,-77.434841,5101,"1-Metropolitan Area",90070,5631
"90","2502790","1267424",2020,"Boston City School",0,975708000,1263944236,0,0,1874077000,1874077000,"Massachusetts","MA",50480,4406.39,1550952000,1763526000,48112,4595.49,1654669000,1919037000,"Suffolk County","Roxbury",2119,NA,"11-City: Large",42.330141,-71.083712,2507,"1-Metropolitan Area",46169,4256.01
"91","5100840","1267422",2020,"Chesterfield County School Board",63252560,20311386,0,0,0,659875816,659875816,"Virginia","VA",62614,3970.22,717691000,798770000,60840,4212.09,757010000,800538000,"Chesterfield County","Chesterfield",23832,NA,"21-Suburb: Large",37.37668,-77.503361,5104,"1-Metropolitan Area",62445,4149
"92","5101260","1267421",2020,"Fairfax County Public Schools",4569398476,3769693854,435474585,0,0,3270489937,3287156083,"Virginia","VA",188887,13132.45,3154609000,3319353000,180028,13149.81,3288664000,3286505000,"Fairfax County","Falls Church",22042,NA,"21-Suburb: Large",38.868583,-77.22411,5111,"1-Metropolitan Area",178479,13199
"93","4702220","107065",2020,"Knox County Schools",131523307,15036000,29575244,0,0,609489608,601675790,"Tennessee","TN",61545,3925.3,604658000,596329000,59169,3931.42,653066000,611632000,"Knox County","Knoxville",37902,NA,"21-Suburb: Large",35.96136,-83.915571,4702,"1-Metropolitan Area",60426,4016.73
"94","0634410","146595",2020,"San Francisco Unified School District",2652780917,836406746,782068572,0,0,1306963214,1290210104,"California","CA",52811,0,1171190000,1189503000,51790,2501.58,1228255000,1161029000,"San Francisco County","San Francisco",94102,5207,"11-City: Large",37.779253,-122.422153,612,"1-Metropolitan Area",49204,2547.13
"95","1200480","165645",2020,"Duval County Public Schools",1094293954,559189287,33766979,0,0,1334173631,1315060542,"Florida","FL",130279,6851,1329442000,1282135000,126815,6539,1436463000,1354660000,"Duval County","JACKSONVILLE",32207,8152,"11-City: Large",30.317393,-81.650348,1204,"1-Metropolitan Area",128948,7126
"96","0102370","1017229",2020,"Mobile County Board of School Commissioners",1056213930,481601000,214694867,0,0,557351638,613625515,"Alabama","AL",53941,2973.4,609296000,582822000,52460,2960.79,675221000,623151000,"Mobile County","Mobile",36618,69,"12-City: Mid-size",30.718638,-88.219762,101,"1-Metropolitan Area",52614,2608.55
"97","5101890","1267423",2020,"Henrico County School Board",602815832,462836320,81756137,0,0,574231130,610289547,"Virginia","VA",51786,3030.57,704381000,666541000,50191,2938.87,760463000,735065000,"Henrico County","Henrico",23223,420,"21-Suburb: Large",37.5416,-77.3823,5104,"1-Metropolitan Area",49991,2893
"98","2400510","196828",2020,"Prince Georgeâ€™S County Public Schools",3459634368,186890787,2858119000,0,0,2465093450,2405571401,"Maryland","MD",135952,9309.51,2517293000,2393113000,131646,9368.2,2646083000,2577578000,"Prince George's County","Upper Marlboro",20772,NA,"21-Suburb: Large",38.815333,-76.759758,2405,"1-Metropolitan Area",128770,9274
"99","1201530","148148",2021,"Pasco County District School Board",1274076351,475673705,106858334,797622,0,902757945,895626256,"Florida","FL",76661,4650.93,819581000,807965000,77125,4790.18,888274000,928434000,"Pasco County","LAND O LAKES",34638,2826,"21-Suburb: Large",28.262694,-82.477158,1212,"1-Metropolitan Area",81157,4711.88
"100","1201230","148130",2021,"Manatee County District School Board",710759791,341334666,17853453,0,0,650260175,664446929,"Florida","FL",50088,2945.63,606069000,604864000,49181,2856.84,642636000,618914000,"Manatee County","BRADENTON",34205,8840,"21-Suburb: Large",27.494847,-82.564795,1216,"1-Metropolitan Area",50248,2928.34
"101","3700011","36539",2021,"Cumberland County Board of Education",687684162,204652114,411166846,0,730423,481496930,513093146,"North Carolina","NC",50750,3421.89,511445000,515721000,49278,3434.3,508036000,532708000,"Cumberland County","Fayetteville",28306,NA,"12-City: Mid-size",35.0142,-78.896331,3709,"1-Metropolitan Area",48860,3516.85
"102","1201560","69989",2021,"District School Board of Pinellas County",1143065408,720789781,58611005,0,0,1243482809,1243306424,"Florida","FL",99772,7379.84,1112631000,1159835000,96068,6829.44,1203245000,1231545000,"Pinellas County","LARGO",33770,3536,"11-City: Large",27.914041,-82.793562,1213,"1-Metropolitan Area",95446,6007.53
"103","2102990","33679",2021,"Jefferson County Board of Education",1717633170,560507654,440641271,0,0,1695673893,1697883445,"Kentucky","KY",100348,6160.96,1491611000,1564381000,95911,6236.39,1599691000,1603292000,"Jefferson County","Louisville",40218,NA,"11-City: Large",38.1995,-85.6851,2103,"1-Metropolitan Area",94393,6223.52
"104","1201080","32402",2021,"The School District of Lee County",1306480223,567716145,51818919,0,0,1134216279,1211807028,"Florida","FL",95613,5194.6,1161742000,1103854000,94927,5156.15,1185267000,1151329000,"Lee County","FORT MYERS",33966,1012,"21-Suburb: Large",26.5997,-81.8536,1219,"1-Metropolitan Area",97264,5170.54
"105","2400480","33968",2021,"Montgomery County Public Schools",3461762167,464686817,2499298431,0,0,3166505574,3110988252,"Maryland","MD",165267,11289.73,3473558000,3261751000,160564,11510.59,3587838000,3183090000,"Montgomery County","Rockville",20850,NA,"21-Suburb: Large",39.095191,-77.158219,2408,"1-Metropolitan Area",158231,11605.84
"106","2400120","171323",2021,"Board of Education of Baltimore County",2788047000,116025000,2420620000,0,0,2163344000,1948422000,"Maryland","MD",115038,7629.7,2001257000,1948149000,111084,7821.41,2000658000,1930683000,"Baltimore County","Towson",21204,NA,"21-Suburb: Large",39.404025,-76.63021,2403,"1-Metropolitan Area",111136,7684.77
"107","1201740","196483",2021,"St. Johns County School District",610942671,263530874,27886089,0,0,496963437,551092059,"Florida","FL",43628,2427.1,485351000,466766000,44550,2445.77,529241000,545492000,"St. Johns County","ST AUGUSTINE",32084,3633,"41-Rural: Fringe",29.897871,-81.315877,1204,"1-Metropolitan Area",48032,2600.17
"108","2400090","44313",2021,"Baltimore City Public School System",441281000,0,0,0,0,1512821000,1672835000,"Maryland","MD",79187,4932.9,1708612000,1647371000,77856,5063.13,1672842000,1609484000,"Baltimore city","Baltimore",21202,NA,"11-City: Large",39.312016,-76.613209,2407,"1-Metropolitan Area",77807,5109.6
"109","3701500","196971",2021,"Winston-Salem/Forsyth County Schools-Board of Education",871012617,247807799,540312747,0,882663,594692776,649542063,"North Carolina","NC",54566,3765.57,560848000,577002000,51843,3635.2,581315000,624108000,"Forsyth County","Winston Salem",27105,NA,"12-City: Mid-size",36.17996,-80.281211,3705,"1-Metropolitan Area",52681,3593.91
"110","3200480","35535",2021,"Washoe County School District",2225904426,732973503,101100866,0,0,733442617,786858586,"Nevada","NV",67301,3875,794783000,914736000,64584,3994,811167000,913412000,"Washoe County","RENO",89520,NA,"11-City: Large",39.53761,-119.810017,3202,"1-Metropolitan Area",65538,NA
"111","4900030","39330",2021,"Alpine School District",943091448,114028597,51252537,1383774,0,737124522,827245124,"Utah","UT",83540,3253.9,737336000,851034000,82800,NA,803172000,820336000,"Utah County","American Fork",84003,NA,"21-Suburb: Large",40.388401,-111.79653,4903,"1-Metropolitan Area",86275,3308.62
"112","4823910","44074",2021,"Humble Independent School District",1375323988,124922803,121473922,0,0,590100378,613605007,"Texas","TX",45078,2931.02,539996000,572059000,45528,3123.61,592505000,715739000,"Harris County","HUMBLE",77338,NA,"21-Suburb: Large",30.012879,-95.267822,4802,"1-Metropolitan Area",48112,3200.11
"113","1500030","71050",2021,"Hawaii Department of Education",574865545,0,0,0,0,3083226635,3314625554,"Hawaii","HI",181088,12220.77,3396555000,3214490000,176441,12145.4,3241890000,3115265000,"Honolulu County","Honolulu",96813,NA,"21-Suburb: Large",21.309338,-157.855285,1501,"1-Metropolitan Area",173178,12026.2
"114","0803360","1237862",2021,"City And County of Denver School District No. 1",3816120556,395426442,40625946,0,0,1485550979,1607637417,"Colorado","CO",92143,6149.47,1588186000,1605362000,89081,6120.67,1615429000,1593940000,"Denver County","DENVER",80203,2996,"11-City: Large",39.74575,-104.985751,801,"1-Metropolitan Area",88911,6140.88
"115","1201470","198253",2021,"Osceola County District School Board",738716305,347343200,16582352,0,0,737330037,854416743,"Florida","FL",69925,4045.71,783041000,728329000,68640,3925.91,840959000,743210000,"Osceola County","KISSIMMEE",34744,4492,"21-Suburb: Large",28.298868,-81.361335,1209,"1-Metropolitan Area",72427,3600.57
"116","1709930","198265",2021,"Chicago Board of Education",29255897000,15440803000,2908390000,0,0,9035395000,7484194000,"Illinois","IL",347484,21943.44,6933320000,7130321000,341382,NA,7446508000,7481077000,"Cook County","Chicago",60602,4413,"11-City: Large",41.882233,-87.628809,1707,"1-Metropolitan Area",329836,22797.43
"117","0634320","146593",2021,"San Diego Unified School District",7331466923,1546135000,143083016,0,0,1986798898,2113720564,"California","CA",102270,0,2101817000,2309589000,97968,4266.88,2239718000,2247111000,"San Diego County","San Diego",92103,2682,"11-City: Large",32.754564,-117.147475,653,"1-Metropolitan Area",95233,4289.35
"118","3704720","36675",2021,"Wake County Board of Education",2669911665,809760809,1632187418,0,2904179,1767842436,2000835184,"North Carolina","NC",163404,10449.95,1680930000,1935687000,159802,10515.93,1709851000,1903899000,"Wake County","Cary",27518,9227,"11-City: Large",35.754138,-78.736509,3704,"1-Metropolitan Area",160099,10961.49
"119","4827300","38905",2021,"Lewisville Independent School District",1817886278,120078526,139565467,0,0,707878440,762324280,"Texas","TX",52189,3605.73,735535000,870650000,49361,3691.7,694752000,817532000,"Denton County","LEWISVILLE",75067,2616,"21-Suburb: Large",33.044284,-97.035084,4826,"1-Metropolitan Area",49205,3752.34
"120","4834320","38993",2021,"Pasadena Independent School District",1284380268,192750901,177412041,0,0,653310985,655314293,"Texas","TX",52878,3736.03,648851000,656620000,50614,3752.34,671489000,654920000,"Harris County","PASADENA",77502,NA,"21-Suburb: Large",29.678147,-95.191679,4829,"1-Metropolitan Area",49326,3828.17
"121","0609850","146048",2021,"Corona-Norco Unified School District",1563044372,671097338,91005083,0,0,746641507,755110226,"California","CA",52557,0,695202000,710246000,51318,2062.96,759981000,697555000,"Riverside County","Norco",92860,1903,"12-City: Mid-size",33.922685,-117.561634,642,"1-Metropolitan Area",50889,2076.56
"122","0614550","146154",2021,"Fresno Unified School District",3379492852,993525000,1050247712,0,0,1271463860,1280455084,"California","CA",71265,0,1163319000,1160647000,70088,2159.3,1286872000,1219665000,"Fresno County","Fresno",93721,2287,"11-City: Large",36.73666,-119.787071,616,"1-Metropolitan Area",69873,3548.96
"123","0622710","146329",2021,"Los Angeles Unified School District",33141717000,7935187000,11062961000,0,0,9827740000,10548699000,"California","CA",483234,0,9721115000,9632193000,460633,21872.95,11112479000,9900601000,"Los Angeles County","Los Angeles",90017,1466,"11-City: Large",34.056169,-118.257348,634,"1-Metropolitan Area",435958,21893.94
"124","0802910","32036",2021,"Cherry Creek School District No 5",2192617732,1215421688,44195888,0,0,470199362,785167301,"Colorado","CO",56228,3234.26,782035000,782350000,54184,3367.93,798786000,781829000,"Arapahoe County","GREENWOOD VILLAGE",80111,1394,"11-City: Large",39.631056,-104.884328,806,"1-Metropolitan Area",53587,3194.09
"125","1200330","32378",2021,"Collier County District School Board",627430646,359379264,4984361,0,0,712240051,711271553,"Florida","FL",47834,2786.05,670634000,653870000,46329,2713.75,691957000,656509000,"Collier County","NAPLES",34109,919,"21-Suburb: Large",26.220768,-81.758198,1219,"1-Metropolitan Area",47617,2847.74
"126","4900210","39313",2021,"Davis School District",768515216,111366038,0,2087893,0,674010309,752601142,"Utah","UT",74773,3055.61,714113000,703172000,72082,NA,740335000,705134000,"Davis County","Farmington",84025,NA,"21-Suburb: Large",40.980796,-111.886593,4902,"1-Metropolitan Area",74486,3061.45
"127","1200180","68696",2021,"The School Board of Broward County",4719813000,1708054000,197602000,0,0,3112376000,3058227000,"Florida","FL",269172,14111.43,3003196000,3148988000,260235,13737.49,2979069000,3179172000,"Broward County","FORT LAUDERDALE",33301,3125,"21-Suburb: Large",26.114594,-80.139472,1222,"1-Metropolitan Area",256037,13341.46
"128","1201920","70626",2021,"Volusia County District School Board",909655530,400285028,34931301,0,0,679405473,720664896,"Florida","FL",63009,3844.04,671121000,668962000,61088,3664.93,717538000,673085000,"Volusia County","DELAND",32720,4207,"13-City: Small",29.030183,-81.308481,1206,"1-Metropolitan Area",62666,3782.92
"129","3701920","36571",2021,"Guilford County Board of Education",1108660665,344503647,691599796,0,1704037,825832880,833573949,"North Carolina","NC",72682,4688.43,788567000,787207000,70047,4770.13,819880000,820562000,"Guilford County","Greensboro",27401,NA,"11-City: Large",36.08087,-79.793191,3713,"1-Metropolitan Area",69173,4757.33
"130","0803450","32045",2021,"Douglas County School District Re.1",1547646681,936328834,34048351,0,0,477799993,786412795,"Colorado","CO",67305,3680.47,855927000,854698000,62979,3664.71,831121000,869311000,"Douglas County","CASTLE ROCK",80108,NA,"21-Suburb: Large",39.375981,-104.859375,804,"1-Metropolitan Area",63596,3609.66
"131","1201710","32425",2021,"Seminole County Public Schools",645371995,409745367,21740202,0,0,704741209,733138761,"Florida","FL",68096,3571.49,682448000,674976000,66226,3307.17,724493000,669438000,"Seminole County","SANFORD",32773,7125,"21-Suburb: Large",28.75788,-81.284129,1207,"1-Metropolitan Area",66729,3543.27
"132","1200870","32396",2021,"The School District of Hillsborough County",2665346000,1414051000,204024000,0,0,2470127000,2594106000,"Florida","FL",223305,13538.5,2423595000,2479463000,218943,13710.99,2563752000,2430968000,"Hillsborough County","TAMPA",33602,3502,"21-Suburb: Large",27.949214,-82.452317,1214,"1-Metropolitan Area",224149,13001.82
"133","1302220","32567",2021,"Forsyth County Board of Education",1580229755,514807347,378154509,0,0,649984177,648222869,"Georgia","GA",50544,3078.1,613976000,694258000,51152,3157.3,648257000,694228000,"Forsyth County","Cumming",30040,NA,"21-Suburb: Large",34.23248,-84.120841,1307,"1-Metropolitan Area",52757,3206.5
"134","1301290","70971",2021,"Cobb County School District",2554459000,1350882000,909504000,0,0,1531381000,1586245000,"Georgia","GA",112097,7361.8,1504214000,1528033000,107379,7347.7,1577457000,1456244000,"Cobb County","Marietta",30061,NA,"21-Suburb: Large",33.938441,-84.538051,1311,"1-Metropolitan Area",106970,7331.5
"135","1300120","70961",2021,"School District Atlanta Public Schools",1577954716,954785144,411088967,0,0,1027374617,1107065727,"Georgia","GA",52416,4025.5,1230648000,1032605000,51012,4099.2,1127638000,1041310000,"Fulton County","Atlanta",30335,NA,"11-City: Large",33.748278,-84.392176,1305,"1-Metropolitan Area",49994,4076.9
"136","3174820","35480",2021,"Omaha City School District 1",1915307000,833386000,28475000,0,0,923968000,868567000,"Nebraska","NE",53483,3498.07,783830000,816217000,51914,3259.94,765346000,990674000,"Douglas County","OMAHA",68131,2024,"11-City: Large",41.267518,-95.960099,3102,"1-Metropolitan Area",51626,3445.22
"137","3200060","35528",2021,"Clark County School District",7397686653,3246664848,341397008,0,0,3587025211,3773255454,"Nevada","NV",328991,16490,3780288000,3772124000,315646,14395,3813021000,3820370000,"Clark County","LAS VEGAS",89146,NA,"11-City: Large",36.145349,-115.211177,3201,"1-Metropolitan Area",315787,NA
"138","1200390","69706",2021,"The School Board of Miami-Dade County",6749546000,2434673000,269536000,0,0,4354450000,4434150000,"Florida","FL",347307,18373,4055452000,4111909000,334261,16758,4324851000,4158104000,"Miami-Dade County","MIAMI",33132,1308,"21-Suburb: Large",25.78893,-80.190942,1224,"1-Metropolitan Area",328589,17365
"139","4820010","38875",2021,"Frisco Independent School District",2958404814,173815951,159309242,0,0,821642847,810326964,"Texas","TX",62705,4279.4,733330000,800767000,63493,4388.91,741665000,877989000,"Collin County","FRISCO",75035,NA,"21-Suburb: Large",33.124631,-96.796882,4803,"1-Metropolitan Area",65825,4407.63
"140","4818300","38929",2021,"El Paso Independent School District",1574007095,162623787,169499197,0,0,685611633,692353398,"Texas","TX",55253,3828.65,688716000,871968000,50661,3730.52,676551000,877310000,"El Paso County","EL PASO",79902,NA,"11-City: Large",31.765784,-106.491527,4816,"1-Metropolitan Area",50769,3511.69
"141","4835100","38877",2021,"Plano Independent School District",1284946545,158421891,150887500,0,0,844601999,924823455,"Texas","TX",52629,3855.13,864934000,825048000,50154,3786.89,883766000,793295000,"Collin County","PLANO",75075,7524,"11-City: Large",33.018521,-96.746043,4803,"1-Metropolitan Area",49400,3638.01
"142","4807710","38981",2021,"Aldine Independent School District",1641404605,189964192,195448921,0,0,863766730,909469310,"Texas","TX",67259,4200.14,808024000,771454000,63302,4243.82,884055000,818824000,"Harris County","HOUSTON",77073,NA,"21-Suburb: Large",30.003612,-95.389625,4818,"1-Metropolitan Area",61633,3990.7
"143","4816230","38892",2021,"Dallas Independent School District",5041659137,600167381,557369210,0,0,2225354088,2343070724,"Texas","TX",153861,9989.46,2222969000,2240796000,145113,10265.92,2213643000,2422714000,"Dallas County","DALLAS",75231,NA,"11-City: Large",32.87655,-96.768441,4832,"1-Metropolitan Area",143558,9873.5
"144","4823640","38988",2021,"Houston Independent School District",4584477017,556359739,540884130,0,0,2792861674,3019128204,"Texas","TX",210061,11770.28,2678991000,2751715000,196943,11750.11,2622407000,2620063000,"Harris County","HOUSTON",77092,8501,"11-City: Large",29.802507,-95.454267,4802,"1-Metropolitan Area",194607,10982.91
"145","4825170","38990",2021,"Katy Independent School District",2638649634,239987931,232773193,0,0,1091806035,1099696832,"Texas","TX",83423,5602.56,1047002000,1069512000,84176,5881.77,1079966000,1088519000,"Fort Bend County","KATY",77494,1057,"21-Suburb: Large",29.7803,-95.8327,4822,"1-Metropolitan Area",88368,6080.62
"146","4819650","38940",2021,"Fort Bend Independent School District",2213317639,220611616,221244800,0,0,1060930559,959226672,"Texas","TX",77756,4876.16,907541000,1060750000,76735,5054.75,920232000,1165638000,"Fort Bend County","SUGAR LAND",77479,2308,"21-Suburb: Large",29.58887,-95.622211,4822,"1-Metropolitan Area",77545,5019.98
"147","4808700","39189",2021,"Arlington Independent School District",1720754199,190880824,179590022,0,0,714301734,744198499,"Texas","TX",59532,4039.63,723448000,733561000,56840,4114.71,735050000,780567000,"Tarrant County","ARLINGTON",76011,NA,"11-City: Large",32.70982,-97.124471,4806,"1-Metropolitan Area",56311,3923.88
"148","4815000","39105",2021,"Conroe Independent School District",1952719533,165523063,162575489,0,0,739075712,783045150,"Texas","TX",64799,3930.12,712178000,715341000,64563,4110.6,769389000,825633000,"Montgomery County","CONROE",77304,NA,"12-City: Mid-size",30.320576,-95.486046,4808,"1-Metropolitan Area",67761,4239.57
"149","4808940","39211",2021,"Austin Independent School District",2833156660,246709201,256544236,0,0,1800313940,1775213465,"Texas","TX",80911,5484.07,1698034000,1951250000,74871,5508.22,1634054000,2001453000,"Travis County","AUSTIN",78704,NA,"11-City: Large",30.218592,-97.753379,4835,"1-Metropolitan Area",74602,5238.78
"150","4819700","39194",2021,"Fort Worth Independent School District",1995676293,284706401,269695599,0,0,1048582970,1193433536,"Texas","TX",82891,5569.24,1029305000,1111041000,76858,5488.23,1140461000,1268455000,"Tarrant County","FORT WORTH",76107,3010,"11-City: Large",32.760407,-97.360455,4812,"1-Metropolitan Area",74850,5069.52
"151","4900360","39321",2021,"Granite School District",566792149,134437593,1880526,9860,0,671159271,714703095,"Utah","UT",66276,2810.25,679625000,707146000,63430,NA,694821000,723646000,"Salt Lake County","SALT LAKE CITY",84115,NA,"21-Suburb: Large",40.716144,-111.889344,4904,"1-Metropolitan Area",62544,2785.77
"152","4900420","39322",2021,"Jordan School District",452332183,101255162,2102296,719866,0,550299948,568610702,"Utah","UT",57771,2535.29,513408000,566852000,57267,NA,553262000,571457000,"Salt Lake County","WEST JORDAN",84084,NA,"21-Suburb: Large",40.61707,-111.983991,4904,"1-Metropolitan Area",59363,2632.94
"153","4838080","39253",2021,"Round Rock Independent School District",1439049973,122550951,132474011,0,0,660015429,626539935,"Texas","TX",50953,3537.26,592934000,595621000,48302,3562.27,581534000,730026000,"Williamson County","ROUND ROCK",78681,4941,"12-City: Mid-size",30.511455,-97.697025,4831,"1-Metropolitan Area",47167,3450.84
"154","5307710","39643",2021,"Seattle School District No.1",158128494,52900318,0,231757822,0,1173100791,1340498044,"Washington","WA",55986,3238.68,1218512000,1131647000,53973,3377.56,1302978000,1114357000,"King County","SEATTLE",98134,1165,"11-City: Large",47.580836,-122.330963,5307,"1-Metropolitan Area",51443,3110.54
"155","5509600","40012",2021,"Milwaukee Public Schools",1282936553,161786883,631694509,0,0,1115965278,1304106715,"Wisconsin","WI",74683,4388.34,1210952000,1211356000,71510,4345.15,1300595000,1251877000,"Milwaukee County","Milwaukee",53208,2627,"11-City: Large",43.04813,-87.979731,5504,"1-Metropolitan Area",69115,4269.89
"156","2400420","41713",2021,"Howard County Board of Education",1279348296,55884306,1080270015,0,0,1149382548,1173579707,"Maryland","MD",58868,4324.5,1085574000,1054436000,57293,4241,1158890000,1083360000,"Howard County","Ellicott City",21042,NA,"21-Suburb: Large",39.235639,-76.889606,2407,"1-Metropolitan Area",57325,4258.4
"157","1301740","105280",2021,"Dekalb County Board of Education",2544087876,1281485515,914081630,0,0,1438897061,1495935328,"Georgia","GA",98800,6892.6,1480388000,1415756000,93470,7108.9,1542598000,1363065000,"DeKalb County","Decatur",30032,NA,"21-Suburb: Large",33.832661,-84.194543,1304,"1-Metropolitan Area",93473,6676.1
"158","4501440","43341",2021,"Charleston County School District",2170073108,656117028,604134867,0,0,905067586,963164121,"South Carolina","SC",50299,3462.4,973407000,952265000,48330,3586.55,1040191000,984936000,"Charleston County","Charleston",29401,NA,"12-City: Mid-size",32.7879,-79.930751,4501,"1-Metropolitan Area",49331,3822.48
"159","4820340","38895",2021,"Garland Independent School District",915494993,162986411,156820871,0,0,681441966,688585255,"Texas","TX",55701,3594.08,662541000,617003000,53921,3609.3,646979000,611815000,"Dallas County","GARLAND",75042,7108,"21-Suburb: Large",32.90868,-96.683861,4805,"1-Metropolitan Area",53674,3448.14
"160","4218990","87525",2021,"School District of Philadelphia",8343807884,3790600000,186300000,0,0,3945983515,4010160109,"Pennsylvania","PA",130617,7789.23,3705298000,3967179000,124111,7855.67,3812902000,3899835000,"Philadelphia County","Philadelphia",19130,NA,"11-City: Large",39.96101,-75.162641,4203,"1-Metropolitan Area",118053,7968.97
"161","4700148","87787",2021,"Board of Education of Shelby County",1224370835,27221,1130535591,161236908,0,1332786133,1375925703,"Tennessee","TN",113198,6897,1347179000,1395085000,110780,6546.09,1385982000,1382789000,"Shelby County","Memphis",38112,NA,"11-City: Large",35.130137,-89.975672,4709,"1-Metropolitan Area",105596,6694.54
"162","1301230","48791",2021,"Clayton County Board of Education",1050040927,528087620,409845950,0,0,641157143,705863175,"Georgia","GA",54424,3151.5,659093000,646512000,52149,3292.6,711007000,661256000,"Clayton County","Jonesboro",30236,NA,"21-Suburb: Large",33.53653,-84.357071,1313,"1-Metropolitan Area",52335,3259.1
"163","0612330","146106",2021,"Elk Grove Unified School District",1408269561,756867000,12171425,0,0,889013352,952310639,"California","CA",63660,0,838162000,860041000,63157,2722.23,940531000,877050000,"Sacramento County","Elk Grove",95624,1801,"21-Suburb: Large",38.41158,-121.373061,607,"1-Metropolitan Area",62229,2763.54
"164","3702970","36608",2021,"Charlotte-Mecklenburg Board of Education",2521807000,729458000,1498015000,0,5531000,1680698000,1936224000,"North Carolina","NC",149845,9183.03,1629822000,1928007000,142733,9284.44,1676922000,2079414000,"Mecklenburg County","Charlotte",28208,NA,"11-City: Large",35.187118,-80.889273,3712,"1-Metropolitan Area",143244,9030.26
"165","3500060","35931",2021,"Albuquerque Municipal School District No. 12",4771504689,3536282260,485256883,0,0,1868948339,1120662608,"New Mexico","NM",88312,6183.24,1228951000,1147156000,83031,6050.39,1169123000,1201928000,"Bernalillo County","ALBUQUERQUE",87110,NA,"11-City: Large",35.102965,-106.572756,3501,"1-Metropolitan Area",81762,6029.47
"166","4832940","38819",2021,"North East Independent School District",2030620656,172926149,189664039,0,0,782352730,794725340,"Texas","TX",64539,4255.59,759969000,769730000,60483,4224.64,773233000,713563000,"Bexar County","SAN ANTONIO",78217,NA,"11-City: Large",29.521666,-98.456886,4821,"1-Metropolitan Area",59830,4001.53
"167","1201590","98989",2021,"School District of Polk County",1155033120,584171515,35381443,0,0,1158981177,1162151131,"Florida","FL",102952,5856,1214768000,1182799000,100495,5865,1186101000,1295313000,"Polk County","BARTOW",33830,7124,"22-Suburb: Mid-size",27.87546,-81.846336,1217,"1-Metropolitan Area",105422,5927
"168","1201440","102323",2021,"Orange County District School Board",2873292546,1384664900,57427977,0,0,2642541171,2877820251,"Florida","FL",208875,11946,2658681000,2665506000,199089,11757,2801991000,2627445000,"Orange County","ORLANDO",32801,1129,"21-Suburb: Large",28.55013,-81.385021,1210,"1-Metropolitan Area",203224,11386
"169","2400060","41282",2021,"Anne Arundel County Board of Education",2408740296,76712926,2064794000,0,0,1440838073,1460219112,"Maryland","MD",84984,5787,1457055000,1501275000,83044,5957.47,1469198000,1465525000,"Anne Arundel County","Annapolis",21401,NA,"21-Suburb: Large",38.97612,-76.559401,2404,"1-Metropolitan Area",83163,6013.61
"170","0622500","146325",2021,"Long Beach Unified School District",3149319980,962921099,451231966,0,0,1133568444,1268432361,"California","CA",71712,0,1173998000,1215628000,69413,2808.82,1266461000,1163778000,"Los Angeles County","Long Beach",90810,1839,"11-City: Large",33.82892,-118.213761,647,"1-Metropolitan Area",67292,2738.24
"171","0804800","32057",2021,"Jefferson County School District No R-1",2761721373,1523282578,55380519,0,0,588685435,982180796,"Colorado","CO",84078,4726.72,1111695000,1118672000,80099,4700.91,1066060000,1181318000,"Jefferson County","GOLDEN",80401,1,"21-Suburb: Large",39.73862,-105.164489,807,"1-Metropolitan Area",76904,4722.6
"172","1302280","70979",2021,"Fulton County Board of Education",2121528100,1125485679,779381586,0,0,1312886363,1393108013,"Georgia","GA",93897,6364.3,1444142000,1360735000,90300,6261.2,1425565000,1326695000,"Fulton County","Atlanta",30315,NA,"21-Suburb: Large",33.68066,-84.414261,1305,"1-Metropolitan Area",90355,6167.3
"173","4502310","38341",2021,"The School District of Greenville County",2736790589,1014813176,919301322,0,0,997471803,1043035976,"South Carolina","SC",77302,5003.8,1004916000,930194000,74094,4990.38,1058506000,984000000,"Greenville County","Greenville",29601,NA,"21-Suburb: Large",34.8439,-82.396061,4504,"1-Metropolitan Area",76939,5133.93
"174","4816110","38984",2021,"Cypress-Fairbanks Independent School District",4426517127,348098746,327842108,0,0,1487393613,1418839448,"Texas","TX",117446,7375.24,1313144000,1401690000,114881,7659.35,1391872000,1582191000,"Harris County","HOUSTON",77065,4208,"21-Suburb: Large",29.922756,-95.583673,4802,"1-Metropolitan Area",117217,7682.15
"175","4833120","38820",2021,"Northside Independent School District",3133192193,304096292,298608482,0,0,1279234386,1314426478,"Texas","TX",107817,7001.95,1281221000,1325003000,103151,6844.94,1223549000,1344525000,"Bexar County","SAN ANTONIO",78238,1699,"11-City: Large",29.490785,-98.601414,4820,"1-Metropolitan Area",102377,6792.17
"176","4703690","107389",2021,"Rutherford County Schools",191405854,NA,149056443,42123364,NA,493952264,595234346,"Tennessee","TN",47458,3083.9,461443000,493333000,47186,3008.05,501384000,563614000,"Rutherford County","Murfreesboro",37128,NA,"21-Suburb: Large",35.812086,-86.403053,4704,"1-Metropolitan Area",49253,3082.8
"177","0634410","146595",2021,"San Francisco Unified School District",3258391470,942536683,1012295819,0,0,1300564922,1352568770,"California","CA",52811,0,1171190000,1189503000,51790,2501.58,1228255000,1161029000,"San Francisco County","San Francisco",94102,5207,"11-City: Large",37.779253,-122.422153,612,"1-Metropolitan Area",49204,2547.13
"178","1200480","165645",2021,"Duval County Public Schools",1207301018,650761367,53682679,0,0,1430063037,1447560967,"Florida","FL",130279,6851,1329442000,1282135000,126815,6539,1436463000,1354660000,"Duval County","JACKSONVILLE",32207,8152,"11-City: Large",30.317393,-81.650348,1204,"1-Metropolitan Area",128948,7126
"179","0102370","1017229",2021,"Mobile County Board of School Commissioners",1215465785,518336000,325912829,0,0,601906067,678544537,"Alabama","AL",53941,2973.4,609296000,582822000,52460,2960.79,675221000,623151000,"Mobile County","Mobile",36618,69,"12-City: Mid-size",30.718638,-88.219762,101,"1-Metropolitan Area",52614,2608.55
"180","5101890","1267423",2021,"Henrico County School Board",650708572,520851160,76925442,0,0,614221032,614221032,"Virginia","VA",51786,3030.57,704381000,666541000,50191,2938.87,760463000,735065000,"Henrico County","Henrico",23223,420,"21-Suburb: Large",37.5416,-77.3823,5104,"1-Metropolitan Area",49991,2893
"181","2400510","196828",2021,"Prince Georgeâ€™S County Public Schools",3506700863,207678490,2911750000,0,0,2514357089,2549532338,"Maryland","MD",135952,9309.51,2517293000,2393113000,131646,9368.2,2646083000,2577578000,"Prince George's County","Upper Marlboro",20772,NA,"21-Suburb: Large",38.815333,-76.759758,2405,"1-Metropolitan Area",128770,9274
"182","5102250","1250804",2021,"Loudoun County Public Schools",1810657330,1185302293,334779254,0,0,1541305574,1611288141,"Virginia","VA",83606,5995.09,1382367000,1493054000,81066,6114.58,1508890000,1533826000,"Loudoun County","Ashburn",20148,NA,"21-Suburb: Large",39.0337,-77.517751,5110,"1-Metropolitan Area",81131,5924
"183","0404970","30554",2021,"Mesa Unified School District No.4",1014094248,567135119,0,0,0,667939010,702988195,"Arizona","AZ",62703,3274.31,630987000,619835000,57956,3321.27,704867000,681325000,"Maricopa County","MESA",85201,7422,"11-City: Large",33.4147,-111.829291,409,"1-Metropolitan Area",58859,3476.15
"184","2200840","76062",2021,"Jefferson Parish Public School System",1594601621,641548785,659142753,0,0,739875731,733998778,"Louisiana","LA",49862,2362.9,671932000,633269000,48160,2302.73,730466000,665419000,"Jefferson Parish","Harvey",70058,3585,"21-Suburb: Large",29.8864,-90.055,2202,"1-Metropolitan Area",46896,2186.31
"185","2601103","161679",2021,"Detroit Community Schools",1941460466,0,0,0,0,88866724,178208379,"MICHIGAN","MI",50644,3106.83,882259000,832841000,48782,3074.53,932712000,872308000,"Wayne County","DETROIT",48202,3085,"11-City: Large",42.36924,-83.076781,2613,"1-Metropolitan Area",48536,3143.83
"186","5103840","1265776",2021,"School Board of The City of Virginia Beach",1077086065,748825120,147744327,0,0,881553759,910618796,"Virginia","VA",68706,4244.49,875527000,932013000,65612,4354.66,929419000,936164000,"Virginia Beach city","Virginia Beach",23456,6038,"11-City: Large",36.751983,-76.059624,5102,"1-Metropolitan Area",65450,4238
"187","1200150","93779",2021,"Brevard District School Board County",1020726984,475178596,17121999,0,0,838044420,851618092,"Florida","FL",73962,4515.1,800729000,791424000,70996,4397.07,834159000,780295000,"Brevard County","VIERA",32940,6601,"21-Suburb: Large",28.248696,-80.736704,1208,"1-Metropolitan Area",72497,4433.3
"188","1201500","93789",2021,"The School District of Palm Beach County",3562652000,1496769000,66950000,0,0,2518609000,2752329000,"Florida","FL",194675,11882.84,2591858000,2555723000,187057,11696.46,2744547000,2522461000,"Palm Beach County","WEST PALM BEACH",33406,5869,"21-Suburb: Large",26.64925,-80.093741,1221,"1-Metropolitan Area",187943,11554.7
"189","1302550","70981",2021,"Gwinnett County Board of Education",4969131931,2014869263,1420468758,0,0,2329791563,2347712215,"Georgia","GA",180589,11429,2354981000,2212800000,177401,11361.3,2344890000,2230587000,"Gwinnett County","Lawrenceville",30045,NA,"21-Suburb: Large",34.016948,-84.057792,1307,"1-Metropolitan Area",179581,11746.5
"190","4703180","107203",2021,"Metropolitan Nashville Public Schools",66882,0,0,0,0,2399848,2230177,"Tennessee","TN",85588,5529.6,1259031000,1151304000,80494,5245.5,1508635000,1215256000,"Davidson County","Nashville",37204,NA,"11-City: Large",36.1219,-86.766811,4705,"1-Metropolitan Area",80381,4856.29
"191","4825740","38991",2021,"Klein Independent School District",1579426495,157094062,151372041,0,0,627388134,646937897,"Texas","TX",54096,3530.5,594459000,555899000,52824,3617.09,629979000,618854000,"Harris County","KLEIN",77379,3299,"21-Suburb: Large",30.04787,-95.533248,4802,"1-Metropolitan Area",53294,3653.1
"192","5103130","1250808",2021,"Prince William County Public Schools",1376448983,0,0,1003741236,142765589,1376884937,1554705819,"Virginia","VA",92237,5696.94,1302817000,1321655000,89548,5650.41,1425919000,1314351000,"Prince William County","Manassas",20112,NA,"21-Suburb: Large",38.63614,-77.434841,5101,"1-Metropolitan Area",90070,5631
"193","2502790","1267424",2021,"Boston City School",0,756926000,1182277000,0,0,2083935000,2083935000,"Massachusetts","MA",50480,4406.39,1550952000,1763526000,48112,4595.49,1654669000,1919037000,"Suffolk County","Roxbury",2119,NA,"11-City: Large",42.330141,-71.083712,2507,"1-Metropolitan Area",46169,4256.01
"194","5101260","1267421",2021,"Fairfax County Public Schools",4923543994,4115292996,387461319,0,0,3320812299,3402118652,"Virginia","VA",188887,13132.45,3154609000,3319353000,180028,13149.81,3288664000,3286505000,"Fairfax County","Falls Church",22042,NA,"21-Suburb: Large",38.868583,-77.22411,5111,"1-Metropolitan Area",178479,13199
"195","4702220","107065",2021,"Knox County Schools",139863723,5443392,39453803,0,0,605347710,675775385,"Tennessee","TN",61545,3925.3,604658000,596329000,59169,3931.42,653066000,611632000,"Knox County","Knoxville",37902,NA,"21-Suburb: Large",35.96136,-83.915571,4702,"1-Metropolitan Area",60426,4016.73
"196","1201530","148148",2022,"Pasco County District School Board",1069763344,204212328,112148615,0,0,845070031,999482073,"Florida","FL",76661,4650.93,819581000,807965000,77125,4790.18,888274000,928434000,"Pasco County","LAND O LAKES",34638,2826,"21-Suburb: Large",28.262694,-82.477158,1212,"1-Metropolitan Area",81157,4711.88
"197","1201230","148130",2022,"Manatee County District School Board",477014109,142380945,17487904,0,0,626010304,735538045,"Florida","FL",50088,2945.63,606069000,604864000,49181,2856.84,642636000,618914000,"Manatee County","BRADENTON",34205,8840,"21-Suburb: Large",27.494847,-82.564795,1216,"1-Metropolitan Area",50248,2928.34
"198","3700011","36539",2022,"Cumberland County Board of Education",592275082,79131743,455719306,0,244497,542096895,616885275,"North Carolina","NC",50750,3421.89,511445000,515721000,49278,3434.3,508036000,532708000,"Cumberland County","Fayetteville",28306,NA,"12-City: Mid-size",35.0142,-78.896331,3709,"1-Metropolitan Area",48860,3516.85
"199","1201560","69989",2022,"District School Board of Pinellas County",736047671,305861431,61258742,0,0,1169154119,1243545374,"Florida","FL",99772,7379.84,1112631000,1159835000,96068,6829.44,1203245000,1231545000,"Pinellas County","LARGO",33770,3536,"11-City: Large",27.914041,-82.793562,1213,"1-Metropolitan Area",95446,6007.53
"200","2102990","33679",2022,"Jefferson County Board of Education",1579546957,443185785,355914935,0,0,1891467349,2188616640,"Kentucky","KY",100348,6160.96,1491611000,1564381000,95911,6236.39,1599691000,1603292000,"Jefferson County","Louisville",40218,NA,"11-City: Large",38.1995,-85.6851,2103,"1-Metropolitan Area",94393,6223.52
"201","1201080","32402",2022,"The School District of Lee County",946684313,246395024,52461989,0,0,1168900535,1382279297,"Florida","FL",95613,5194.6,1161742000,1103854000,94927,5156.15,1185267000,1151329000,"Lee County","FORT MYERS",33966,1012,"21-Suburb: Large",26.5997,-81.8536,1219,"1-Metropolitan Area",97264,5170.54
"202","2400480","33968",2022,"Montgomery County Public Schools",3642516561,99777369,2827843426,0,0,3316534997,3377303917,"Maryland","MD",165267,11289.73,3473558000,3261751000,160564,11510.59,3587838000,3183090000,"Montgomery County","Rockville",20850,NA,"21-Suburb: Large",39.095191,-77.158219,2408,"1-Metropolitan Area",158231,11605.84
"203","1200390","69706",2022,"The School Board of Miami-Dade County",5172321000,979938000,293561000,0,0,4310277000,4525881000,"Florida","FL",347307,18373,4055452000,4111909000,334261,16758,4324851000,4158104000,"Miami-Dade County","MIAMI",33132,1308,"21-Suburb: Large",25.78893,-80.190942,1224,"1-Metropolitan Area",328589,17365
"204","1500030","71050",2022,"Hawaii Department of Education",603431402,0,0,0,0,3289171601,3579135080,"Hawaii","HI",181088,12220.77,3396555000,3214490000,176441,12145.4,3241890000,3115265000,"Honolulu County","Honolulu",96813,NA,"21-Suburb: Large",21.309338,-157.855285,1501,"1-Metropolitan Area",173178,12026.2
"205","1201740","196483",2022,"St. Johns County School District",444158395,117730342,31422551,0,0,524315563,592419358,"Florida","FL",43628,2427.1,485351000,466766000,44550,2445.77,529241000,545492000,"St. Johns County","ST AUGUSTINE",32084,3633,"41-Rural: Fringe",29.897871,-81.315877,1204,"1-Metropolitan Area",48032,2600.17
"206","2400090","44313",2022,"Baltimore City Public School System",496357000,0,0,0,0,1642729000,1937428000,"Maryland","MD",79187,4932.9,1708612000,1647371000,77856,5063.13,1672842000,1609484000,"Baltimore city","Baltimore",21202,NA,"11-City: Large",39.312016,-76.613209,2407,"1-Metropolitan Area",77807,5109.6
"207","3701500","196971",2022,"Winston-Salem/Forsyth County Schools-Board of Education",753614650,94326783,589252692,0,289817,671313460,776047317,"North Carolina","NC",54566,3765.57,560848000,577002000,51843,3635.2,581315000,624108000,"Forsyth County","Winston Salem",27105,NA,"12-City: Mid-size",36.17996,-80.281211,3705,"1-Metropolitan Area",52681,3593.91
"208","2400120","171323",2022,"Board of Education of Baltimore County",2205773000,98387000,1746250000,0,0,2065036000,2024680000,"Maryland","MD",115038,7629.7,2001257000,1948149000,111084,7821.41,2000658000,1930683000,"Baltimore County","Towson",21204,NA,"21-Suburb: Large",39.404025,-76.63021,2403,"1-Metropolitan Area",111136,7684.77
"209","4820340","38895",2022,"Garland Independent School District",801473441,80131846,158355733,0,0,621571261,698694619,"Texas","TX",55701,3594.08,662541000,617003000,53921,3609.3,646979000,611815000,"Dallas County","GARLAND",75042,7108,"21-Suburb: Large",32.90868,-96.683861,4805,"1-Metropolitan Area",53674,3448.14
"210","0803360","1237862",2022,"City And County of Denver School District No. 1",3663304330,4035111,26552730,0,0,1406365102,1692905784,"Colorado","CO",92143,6149.47,1588186000,1605362000,89081,6120.67,1615429000,1593940000,"Denver County","DENVER",80203,2996,"11-City: Large",39.74575,-104.985751,801,"1-Metropolitan Area",88911,6140.88
"211","1201470","198253",2022,"Osceola County District School Board",513854719,151318672,15279565,0,0,753198847,935328714,"Florida","FL",69925,4045.71,783041000,728329000,68640,3925.91,840959000,743210000,"Osceola County","KISSIMMEE",34744,4492,"21-Suburb: Large",28.298868,-81.361335,1209,"1-Metropolitan Area",72427,3600.57
"212","1709930","198265",2022,"Chicago Board of Education",29464982000,14727410000,3304981000,0,0,9159928000,8394133000,"Illinois","IL",347484,21943.44,6933320000,7130321000,341382,NA,7446508000,7481077000,"Cook County","Chicago",60602,4413,"11-City: Large",41.882233,-87.628809,1707,"1-Metropolitan Area",329836,22797.43
"213","3701920","36571",2022,"Guilford County Board of Education",970820060,130946596,750028289,0,405890,871860532,984389389,"North Carolina","NC",72682,4688.43,788567000,787207000,70047,4770.13,819880000,820562000,"Guilford County","Greensboro",27401,NA,"11-City: Large",36.08087,-79.793191,3713,"1-Metropolitan Area",69173,4757.33
"214","0634320","146593",2022,"San Diego Unified School District",6939382611,803920000,136132998,0,0,1965428482,2348998159,"California","CA",102270,0,2101817000,2309589000,97968,4266.88,2239718000,2247111000,"San Diego County","San Diego",92103,2682,"11-City: Large",32.754564,-117.147475,653,"1-Metropolitan Area",95233,4289.35
"215","0803450","32045",2022,"Douglas County School District Re.1",1179974812,636750686,30807156,0,0,554339436,867335496,"Colorado","CO",67305,3680.47,855927000,854698000,62979,3664.71,831121000,869311000,"Douglas County","CASTLE ROCK",80108,NA,"21-Suburb: Large",39.375981,-104.859375,804,"1-Metropolitan Area",63596,3609.66
"216","3702970","36608",2022,"Charlotte-Mecklenburg Board of Education",2193102000,288326000,1678546000,0,897000,1743696000,2124930000,"North Carolina","NC",149845,9183.03,1629822000,1928007000,142733,9284.44,1676922000,2079414000,"Mecklenburg County","Charlotte",28208,NA,"11-City: Large",35.187118,-80.889273,3712,"1-Metropolitan Area",143244,9030.26
"217","1201710","32425",2022,"Seminole County Public Schools",368504409,172583468,9869686,0,0,671846476,746766650,"Florida","FL",68096,3571.49,682448000,674976000,66226,3307.17,724493000,669438000,"Seminole County","SANFORD",32773,7125,"21-Suburb: Large",28.75788,-81.284129,1207,"1-Metropolitan Area",66729,3543.27
"218","1200870","32396",2022,"The School District of Hillsborough County",1885482000,603952000,226659000,0,0,2344589000,2866307000,"Florida","FL",223305,13538.5,2423595000,2479463000,218943,13710.99,2563752000,2430968000,"Hillsborough County","TAMPA",33602,3502,"21-Suburb: Large",27.949214,-82.452317,1214,"1-Metropolitan Area",224149,13001.82
"219","1302220","32567",2022,"Forsyth County Board of Education",1096947127,189187977,282977024,0,0,582971133,727522197,"Georgia","GA",50544,3078.1,613976000,694258000,51152,3157.3,648257000,694228000,"Forsyth County","Cumming",30040,NA,"21-Suburb: Large",34.23248,-84.120841,1307,"1-Metropolitan Area",52757,3206.5
"220","0609850","146048",2022,"Corona-Norco Unified School District",1202562776,345568234,90317797,0,0,706726600,829160242,"California","CA",52557,0,695202000,710246000,51318,2062.96,759981000,697555000,"Riverside County","Norco",92860,1903,"12-City: Mid-size",33.922685,-117.561634,642,"1-Metropolitan Area",50889,2076.56
"221","0614550","146154",2022,"Fresno Unified School District",2557865078,492432000,987304445,0,0,1324637810,1515772451,"California","CA",71265,0,1163319000,1160647000,70088,2159.3,1286872000,1219665000,"Fresno County","Fresno",93721,2287,"11-City: Large",36.73666,-119.787071,616,"1-Metropolitan Area",69873,3548.96
"222","0622710","146329",2022,"Los Angeles Unified School District",28683759000,4311675000,10186225000,0,0,10824582000,12425358000,"California","CA",483234,0,9721115000,9632193000,460633,21872.95,11112479000,9900601000,"Los Angeles County","Los Angeles",90017,1466,"11-City: Large",34.056169,-118.257348,634,"1-Metropolitan Area",435958,21893.94
"223","3200480","35535",2022,"Washoe County School District",1956695511,480019715,84116082,0,0,719872778,845829655,"Nevada","NV",67301,3875,794783000,914736000,64584,3994,811167000,913412000,"Washoe County","RENO",89520,NA,"11-City: Large",39.53761,-119.810017,3202,"1-Metropolitan Area",65538,NA
"224","4900030","39330",2022,"Alpine School District",809933690,0,59817996,67529945,0,766987776,922755140,"Utah","UT",83540,3253.9,737336000,851034000,82800,NA,803172000,820336000,"Utah County","American Fork",84003,NA,"21-Suburb: Large",40.388401,-111.79653,4903,"1-Metropolitan Area",86275,3308.62
"225","3174820","35480",2022,"Omaha City School District 1",1854851000,709651000,26659000,0,0,961290000,885291000,"Nebraska","NE",53483,3498.07,783830000,816217000,51914,3259.94,765346000,990674000,"Douglas County","OMAHA",68131,2024,"11-City: Large",41.267518,-95.960099,3102,"1-Metropolitan Area",51626,3445.22
"226","3200060","35528",2022,"Clark County School District",6616725990,2167406738,375206564,0,0,3731048703,4480642764,"Nevada","NV",328991,16490,3780288000,3772124000,315646,14395,3813021000,3820370000,"Clark County","LAS VEGAS",89146,NA,"11-City: Large",36.145349,-115.211177,3201,"1-Metropolitan Area",315787,NA
"227","4823910","44074",2022,"Humble Independent School District",1367054363,55777235,115558569,0,0,586047206,633237092,"Texas","TX",45078,2931.02,539996000,572059000,45528,3123.61,592505000,715739000,"Harris County","HUMBLE",77338,NA,"21-Suburb: Large",30.012879,-95.267822,4802,"1-Metropolitan Area",48112,3200.11
"228","3704720","36675",2022,"Wake County Board of Education",2479311312,312359922,1808842283,0,967363,1890940187,2291155195,"North Carolina","NC",163404,10449.95,1680930000,1935687000,159802,10515.93,1709851000,1903899000,"Wake County","Cary",27518,9227,"11-City: Large",35.754138,-78.736509,3704,"1-Metropolitan Area",160099,10961.49
"229","4827300","38905",2022,"Lewisville Independent School District",1607779084,70028626,143876935,0,0,674570671,763197979,"Texas","TX",52189,3605.73,735535000,870650000,49361,3691.7,694752000,817532000,"Denton County","LEWISVILLE",75067,2616,"21-Suburb: Large",33.044284,-97.035084,4826,"1-Metropolitan Area",49205,3752.34
"230","4834320","38993",2022,"Pasadena Independent School District",1125132099,92055497,177646693,0,0,681521250,731622584,"Texas","TX",52878,3736.03,648851000,656620000,50614,3752.34,671489000,654920000,"Harris County","PASADENA",77502,NA,"21-Suburb: Large",29.678147,-95.191679,4829,"1-Metropolitan Area",49326,3828.17
"231","0612330","146106",2022,"Elk Grove Unified School District",1075350313,363655000,11624895,0,0,850822680,1018154039,"California","CA",63660,0,838162000,860041000,63157,2722.23,940531000,877050000,"Sacramento County","Elk Grove",95624,1801,"21-Suburb: Large",38.41158,-121.373061,607,"1-Metropolitan Area",62229,2763.54
"232","4832940","38819",2022,"North East Independent School District",1856368896,81593041,183769031,0,0,739975203,843447483,"Texas","TX",64539,4255.59,759969000,769730000,60483,4224.64,773233000,713563000,"Bexar County","SAN ANTONIO",78217,NA,"11-City: Large",29.521666,-98.456886,4821,"1-Metropolitan Area",59830,4001.53
"233","1201590","98989",2022,"School District of Polk County",815147783,250868681,48799141,0,0,1252803438,1400686936,"Florida","FL",102952,5856,1214768000,1182799000,100495,5865,1186101000,1295313000,"Polk County","BARTOW",33830,7124,"22-Suburb: Mid-size",27.87546,-81.846336,1217,"1-Metropolitan Area",105422,5927
"234","1201440","102323",2022,"Orange County District School Board",1985696688,559308621,48695858,0,0,2528667847,3077292844,"Florida","FL",208875,11946,2658681000,2665506000,199089,11757,2801991000,2627445000,"Orange County","ORLANDO",32801,1129,"21-Suburb: Large",28.55013,-81.385021,1210,"1-Metropolitan Area",203224,11386
"235","4820010","38875",2022,"Frisco Independent School District",2989594645,87846717,167202174,0,0,832571939,828768034,"Texas","TX",62705,4279.4,733330000,800767000,63493,4388.91,741665000,877989000,"Collin County","FRISCO",75035,NA,"21-Suburb: Large",33.124631,-96.796882,4803,"1-Metropolitan Area",65825,4407.63
"236","4818300","38929",2022,"El Paso Independent School District",1455178794,74746455,162029167,0,0,636466517,694964092,"Texas","TX",55253,3828.65,688716000,871968000,50661,3730.52,676551000,877310000,"El Paso County","EL PASO",79902,NA,"11-City: Large",31.765784,-106.491527,4816,"1-Metropolitan Area",50769,3511.69
"237","1302280","70979",2022,"Fulton County Board of Education",1272945793,481981956,578951041,0,0,1275648325,1611502864,"Georgia","GA",93897,6364.3,1444142000,1360735000,90300,6261.2,1425565000,1326695000,"Fulton County","Atlanta",30315,NA,"21-Suburb: Large",33.68066,-84.414261,1305,"1-Metropolitan Area",90355,6167.3
"238","4835100","38877",2022,"Plano Independent School District",1068266206,74488392,147854332,0,0,839741773,948783062,"Texas","TX",52629,3855.13,864934000,825048000,50154,3786.89,883766000,793295000,"Collin County","PLANO",75075,7524,"11-City: Large",33.018521,-96.746043,4803,"1-Metropolitan Area",49400,3638.01
"239","4807710","38981",2022,"Aldine Independent School District",1539488436,100160353,198628115,0,0,780810740,902727160,"Texas","TX",67259,4200.14,808024000,771454000,63302,4243.82,884055000,818824000,"Harris County","HOUSTON",77073,NA,"21-Suburb: Large",30.003612,-95.389625,4818,"1-Metropolitan Area",61633,3990.7
"240","4816230","38892",2022,"Dallas Independent School District",5117424277,303114994,569594378,0,0,2127179752,2378029978,"Texas","TX",153861,9989.46,2222969000,2240796000,145113,10265.92,2213643000,2422714000,"Dallas County","DALLAS",75231,NA,"11-City: Large",32.87655,-96.768441,4832,"1-Metropolitan Area",143558,9873.5
"241","4823640","38988",2022,"Houston Independent School District",4017192671,261676905,531819720,0,0,2733855715,3143925418,"Texas","TX",210061,11770.28,2678991000,2751715000,196943,11750.11,2622407000,2620063000,"Harris County","HOUSTON",77092,8501,"11-City: Large",29.802507,-95.454267,4802,"1-Metropolitan Area",194607,10982.91
"242","4825170","38990",2022,"Katy Independent School District",2922065682,120591481,244188502,0,0,1105704784,1171057117,"Texas","TX",83423,5602.56,1047002000,1069512000,84176,5881.77,1079966000,1088519000,"Fort Bend County","KATY",77494,1057,"21-Suburb: Large",29.7803,-95.8327,4822,"1-Metropolitan Area",88368,6080.62
"243","4819650","38940",2022,"Fort Bend Independent School District",2238763485,114694828,226752430,0,0,979717663,983531628,"Texas","TX",77756,4876.16,907541000,1060750000,76735,5054.75,920232000,1165638000,"Fort Bend County","SUGAR LAND",77479,2308,"21-Suburb: Large",29.58887,-95.622211,4822,"1-Metropolitan Area",77545,5019.98
"244","4808700","39189",2022,"Arlington Independent School District",1768016847,94001973,184805089,0,0,735907670,791863327,"Texas","TX",59532,4039.63,723448000,733561000,56840,4114.71,735050000,780567000,"Tarrant County","ARLINGTON",76011,NA,"11-City: Large",32.70982,-97.124471,4806,"1-Metropolitan Area",56311,3923.88
"245","4815000","39105",2022,"Conroe Independent School District",2180487749,86473036,172908251,0,0,753057341,796588711,"Texas","TX",64799,3930.12,712178000,715341000,64563,4110.6,769389000,825633000,"Montgomery County","CONROE",77304,NA,"12-City: Mid-size",30.320576,-95.486046,4808,"1-Metropolitan Area",67761,4239.57
"246","4808940","39211",2022,"Austin Independent School District",2497215287,118923950,261315475,0,0,1806248529,1904957717,"Texas","TX",80911,5484.07,1698034000,1951250000,74871,5508.22,1634054000,2001453000,"Travis County","AUSTIN",78704,NA,"11-City: Large",30.218592,-97.753379,4835,"1-Metropolitan Area",74602,5238.78
"247","4819700","39194",2022,"Fort Worth Independent School District",2010367300,137291685,266947488,0,0,1023582315,1184225922,"Texas","TX",82891,5569.24,1029305000,1111041000,76858,5488.23,1140461000,1268455000,"Tarrant County","FORT WORTH",76107,3010,"11-City: Large",32.760407,-97.360455,4812,"1-Metropolitan Area",74850,5069.52
"248","4900360","39321",2022,"Granite School District",433408113,15817857,1620690,73809788,0,619422155,789408746,"Utah","UT",66276,2810.25,679625000,707146000,63430,NA,694821000,723646000,"Salt Lake County","SALT LAKE CITY",84115,NA,"21-Suburb: Large",40.716144,-111.889344,4904,"1-Metropolitan Area",62544,2785.77
"249","4900420","39322",2022,"Jordan School District",341856873,8581342,2919669,49299598,0,539122502,621924758,"Utah","UT",57771,2535.29,513408000,566852000,57267,NA,553262000,571457000,"Salt Lake County","WEST JORDAN",84084,NA,"21-Suburb: Large",40.61707,-111.983991,4904,"1-Metropolitan Area",59363,2632.94
"250","4838080","39253",2022,"Round Rock Independent School District",1348198749,60755425,133656092,0,0,623834463,633621167,"Texas","TX",50953,3537.26,592934000,595621000,48302,3562.27,581534000,730026000,"Williamson County","ROUND ROCK",78681,4941,"12-City: Mid-size",30.511455,-97.697025,4831,"1-Metropolitan Area",47167,3450.84
"251","5307710","39643",2022,"Seattle School District No.1",160077477,140712957,0,28379527,0,1371118223,1408997234,"Washington","WA",55986,3238.68,1218512000,1131647000,53973,3377.56,1302978000,1114357000,"King County","SEATTLE",98134,1165,"11-City: Large",47.580836,-122.330963,5307,"1-Metropolitan Area",51443,3110.54
"252","5509600","40012",2022,"Milwaukee Public Schools",1129331858,109186165,579869520,179587826,0,1223409371,1460927025,"Wisconsin","WI",74683,4388.34,1210952000,1211356000,71510,4345.15,1300595000,1251877000,"Milwaukee County","Milwaukee",53208,2627,"11-City: Large",43.04813,-87.979731,5504,"1-Metropolitan Area",69115,4269.89
"253","2400420","41713",2022,"Howard County Board of Education",1417142394,40867624,1224705936,0,0,1292774094,1308170225,"Maryland","MD",58868,4324.5,1085574000,1054436000,57293,4241,1158890000,1083360000,"Howard County","Ellicott City",21042,NA,"21-Suburb: Large",39.235639,-76.889606,2407,"1-Metropolitan Area",57325,4258.4
"254","1301740","105280",2022,"Dekalb County Board of Education",1410439661,458069789,674481213,0,0,1366999080,1754322007,"Georgia","GA",98800,6892.6,1480388000,1415756000,93470,7108.9,1542598000,1363065000,"DeKalb County","Decatur",30032,NA,"21-Suburb: Large",33.832661,-84.194543,1304,"1-Metropolitan Area",93473,6676.1
"255","4501440","43341",2022,"Charleston County School District",2171137557,595948185,718715844,0,0,990803695,1091173718,"South Carolina","SC",50299,3462.4,973407000,952265000,48330,3586.55,1040191000,984936000,"Charleston County","Charleston",29401,NA,"12-City: Mid-size",32.7879,-79.930751,4501,"1-Metropolitan Area",49331,3822.48
"256","0622500","146325",2022,"Long Beach Unified School District",2597539043,480681147,401299005,0,0,1114588767,1281497291,"California","CA",71712,0,1173998000,1215628000,69413,2808.82,1266461000,1163778000,"Los Angeles County","Long Beach",90810,1839,"11-City: Large",33.82892,-118.213761,647,"1-Metropolitan Area",67292,2738.24
"257","0804800","32057",2022,"Jefferson County School District No R-1",2221930001,1032420784,49949079,0,0,566942357,980930517,"Colorado","CO",84078,4726.72,1111695000,1118672000,80099,4700.91,1066060000,1181318000,"Jefferson County","GOLDEN",80401,1,"21-Suburb: Large",39.73862,-105.164489,807,"1-Metropolitan Area",76904,4722.6
"258","3500060","35931",2022,"Albuquerque Municipal School District No. 12",2349381349,1208673186,372367571,0,0,1162855785,1207207943,"New Mexico","NM",88312,6183.24,1228951000,1147156000,83031,6050.39,1169123000,1201928000,"Bernalillo County","ALBUQUERQUE",87110,NA,"11-City: Large",35.102965,-106.572756,3501,"1-Metropolitan Area",81762,6029.47
"259","0802910","32036",2022,"Cherry Creek School District No 5",1847264298,845137624,40888024,0,0,493566705,866999574,"Colorado","CO",56228,3234.26,782035000,782350000,54184,3367.93,798786000,781829000,"Arapahoe County","GREENWOOD VILLAGE",80111,1394,"11-City: Large",39.631056,-104.884328,806,"1-Metropolitan Area",53587,3194.09
"260","1200330","32378",2022,"Collier County District School Board",374831507,157178954,4668040,0,0,688056751,770897526,"Florida","FL",47834,2786.05,670634000,653870000,46329,2713.75,691957000,656509000,"Collier County","NAPLES",34109,919,"21-Suburb: Large",26.220768,-81.758198,1219,"1-Metropolitan Area",47617,2847.74
"261","4900210","39313",2022,"Davis School District",612899141,0,0,65971070,65971070,674110332,819673603,"Utah","UT",74773,3055.61,714113000,703172000,72082,NA,740335000,705134000,"Davis County","Farmington",84025,NA,"21-Suburb: Large",40.980796,-111.886593,4902,"1-Metropolitan Area",74486,3061.45
"262","1200180","68696",2022,"The School Board of Broward County",4101087000,717399000,218703000,0,0,3098004000,3345977000,"Florida","FL",269172,14111.43,3003196000,3148988000,260235,13737.49,2979069000,3179172000,"Broward County","FORT LAUDERDALE",33301,3125,"21-Suburb: Large",26.114594,-80.139472,1222,"1-Metropolitan Area",256037,13341.46
"263","2400060","41282",2022,"Anne Arundel County Board of Education",2579835716,59724128,2234317354,0,0,1541721301,1668980363,"Maryland","MD",84984,5787,1457055000,1501275000,83044,5957.47,1469198000,1465525000,"Anne Arundel County","Annapolis",21401,NA,"21-Suburb: Large",38.97612,-76.559401,2404,"1-Metropolitan Area",83163,6013.61
"264","1201920","70626",2022,"Volusia County District School Board",677407707,166740065,52779620,0,0,692783836,784666880,"Florida","FL",63009,3844.04,671121000,668962000,61088,3664.93,717538000,673085000,"Volusia County","DELAND",32720,4207,"13-City: Small",29.030183,-81.308481,1206,"1-Metropolitan Area",62666,3782.92
"265","1301290","70971",2022,"Cobb County School District",1478270000,497854000,677878000,0,0,1398684000,1702635000,"Georgia","GA",112097,7361.8,1504214000,1528033000,107379,7347.7,1577457000,1456244000,"Cobb County","Marietta",30061,NA,"21-Suburb: Large",33.938441,-84.538051,1311,"1-Metropolitan Area",106970,7331.5
"266","1300120","70961",2022,"School District Atlanta Public Schools",1053233508,513809696,311254040,0,0,1073033604,1339925605,"Georgia","GA",52416,4025.5,1230648000,1032605000,51012,4099.2,1127638000,1041310000,"Fulton County","Atlanta",30335,NA,"11-City: Large",33.748278,-84.392176,1305,"1-Metropolitan Area",49994,4076.9
"267","4502310","38341",2022,"The School District of Greenville County",2631862828,860615385,1065211698,0,0,1060578074,1147588388,"South Carolina","SC",77302,5003.8,1004916000,930194000,74094,4990.38,1058506000,984000000,"Greenville County","Greenville",29601,NA,"21-Suburb: Large",34.8439,-82.396061,4504,"1-Metropolitan Area",76939,5133.93
"268","4816110","38984",2022,"Cypress-Fairbanks Independent School District",4220130011,169555630,340606217,0,0,1402098528,1445079192,"Texas","TX",117446,7375.24,1313144000,1401690000,114881,7659.35,1391872000,1582191000,"Harris County","HOUSTON",77065,4208,"21-Suburb: Large",29.922756,-95.583673,4802,"1-Metropolitan Area",117217,7682.15
"269","4833120","38820",2022,"Northside Independent School District",3044379243,137638982,288188237,0,0,1245917923,1402718826,"Texas","TX",107817,7001.95,1281221000,1325003000,103151,6844.94,1223549000,1344525000,"Bexar County","SAN ANTONIO",78238,1699,"11-City: Large",29.490785,-98.601414,4820,"1-Metropolitan Area",102377,6792.17
"270","4703690","107389",2022,"Rutherford County Schools",190295261,NA,147335929,224126502,NA,474092425,579138788,"Tennessee","TN",47458,3083.9,461443000,493333000,47186,3008.05,501384000,563614000,"Rutherford County","Murfreesboro",37128,NA,"21-Suburb: Large",35.812086,-86.403053,4704,"1-Metropolitan Area",49253,3082.8
"271","0634410","146595",2022,"San Francisco Unified School District",2775479417,0,1038791715,0,0,1219446138,1528126847,"California","CA",52811,0,1171190000,1189503000,51790,2501.58,1228255000,1161029000,"San Francisco County","San Francisco",94102,5207,"11-City: Large",37.779253,-122.422153,612,"1-Metropolitan Area",49204,2547.13
"272","1200480","165645",2022,"Duval County Public Schools",831526613,284255138,47375605,0,0,1454171462,1622124555,"Florida","FL",130279,6851,1329442000,1282135000,126815,6539,1436463000,1354660000,"Duval County","JACKSONVILLE",32207,8152,"11-City: Large",30.317393,-81.650348,1204,"1-Metropolitan Area",128948,7126
"273","5102250","1250804",2022,"Loudoun County Public Schools",1327976395,636300637,347197802,0,0,1626827252,1740091007,"Virginia","VA",83606,5995.09,1382367000,1493054000,81066,6114.58,1508890000,1533826000,"Loudoun County","Ashburn",20148,NA,"21-Suburb: Large",39.0337,-77.517751,5110,"1-Metropolitan Area",81131,5924
"274","0102370","1017229",2022,"Mobile County Board of School Commissioners",1117729692,393780000,255091005,0,0,637702637,767151946,"Alabama","AL",53941,2973.4,609296000,582822000,52460,2960.79,675221000,623151000,"Mobile County","Mobile",36618,69,"12-City: Mid-size",30.718638,-88.219762,101,"1-Metropolitan Area",52614,2608.55
"275","5101890","1267423",2022,"Henrico County School Board",467193516,274688193,78353723,0,0,615220444,700416757,"Virginia","VA",51786,3030.57,704381000,666541000,50191,2938.87,760463000,735065000,"Henrico County","Henrico",23223,420,"21-Suburb: Large",37.5416,-77.3823,5104,"1-Metropolitan Area",49991,2893
"276","4218990","87525",2022,"School District of Philadelphia",8177981593,3253100000,208300000,0,0,4272581672,4651065458,"Pennsylvania","PA",130617,7789.23,3705298000,3967179000,124111,7855.67,3812902000,3899835000,"Philadelphia County","Philadelphia",19130,NA,"11-City: Large",39.96101,-75.162641,4203,"1-Metropolitan Area",118053,7968.97
"277","2400510","196828",2022,"Prince Georgeâ€™S County Public Schools",3163917915,155041238,2586693000,0,0,2731903656,2806872425,"Maryland","MD",135952,9309.51,2517293000,2393113000,131646,9368.2,2646083000,2577578000,"Prince George's County","Upper Marlboro",20772,NA,"21-Suburb: Large",38.815333,-76.759758,2405,"1-Metropolitan Area",128770,9274
"278","4700148","87787",2022,"Board of Education of Shelby County",1137820317,58210,997809591,595080353,0,1404707288,1627631646,"Tennessee","TN",113198,6897,1347179000,1395085000,110780,6546.09,1385982000,1382789000,"Shelby County","Memphis",38112,NA,"11-City: Large",35.130137,-89.975672,4709,"1-Metropolitan Area",105596,6694.54
"279","0404970","30554",2022,"Mesa Unified School District No.4",933067958,438021553,0,0,0,737710699,770276105,"Arizona","AZ",62703,3274.31,630987000,619835000,57956,3321.27,704867000,681325000,"Maricopa County","MESA",85201,7422,"11-City: Large",33.4147,-111.829291,409,"1-Metropolitan Area",58859,3476.15
"280","2200840","76062",2022,"Jefferson Parish Public School System",1254771469,287711839,558494795,0,0,772876334,897502814,"Louisiana","LA",49862,2362.9,671932000,633269000,48160,2302.73,730466000,665419000,"Jefferson Parish","Harvey",70058,3585,"21-Suburb: Large",29.8864,-90.055,2202,"1-Metropolitan Area",46896,2186.31
"281","2601103","161679",2022,"Detroit Community Schools",1813478537,0,0,0,0,76902950,184659192,"MICHIGAN","MI",50644,3106.83,882259000,832841000,48782,3074.53,932712000,872308000,"Wayne County","DETROIT",48202,3085,"11-City: Large",42.36924,-83.076781,2613,"1-Metropolitan Area",48536,3143.83
"282","5103840","1265776",2022,"School Board of The City of Virginia Beach",691651798,374959932,144993753,1594224,167335,952286866,1091463736,"Virginia","VA",68706,4244.49,875527000,932013000,65612,4354.66,929419000,936164000,"Virginia Beach city","Virginia Beach",23456,6038,"11-City: Large",36.751983,-76.059624,5102,"1-Metropolitan Area",65450,4238
"283","1200150","93779",2022,"Brevard District School Board County",716195226,192510509,17479901,0,0,820790396,915719479,"Florida","FL",73962,4515.1,800729000,791424000,70996,4397.07,834159000,780295000,"Brevard County","VIERA",32940,6601,"21-Suburb: Large",28.248696,-80.736704,1208,"1-Metropolitan Area",72497,4433.3
"284","1201500","93789",2022,"The School District of Palm Beach County",2604310000,616040000,63218000,0,0,2632326000,2972557000,"Florida","FL",194675,11882.84,2591858000,2555723000,187057,11696.46,2744547000,2522461000,"Palm Beach County","WEST PALM BEACH",33406,5869,"21-Suburb: Large",26.64925,-80.093741,1221,"1-Metropolitan Area",187943,11554.7
"285","1302550","70981",2022,"Gwinnett County Board of Education",3303196914,581621322,1040000402,0,0,2160225739,2664462836,"Georgia","GA",180589,11429,2354981000,2212800000,177401,11361.3,2344890000,2230587000,"Gwinnett County","Lawrenceville",30045,NA,"21-Suburb: Large",34.016948,-84.057792,1307,"1-Metropolitan Area",179581,11746.5
"286","4703180","107203",2022,"Metropolitan Nashville Public Schools",181456,0,0,0,0,5287030,5664158,"Tennessee","TN",85588,5529.6,1259031000,1151304000,80494,5245.5,1508635000,1215256000,"Davidson County","Nashville",37204,NA,"11-City: Large",36.1219,-86.766811,4705,"1-Metropolitan Area",80381,4856.29
"287","4825740","38991",2022,"Klein Independent School District",1451632789,77661481,155117901,0,0,606175507,667137983,"Texas","TX",54096,3530.5,594459000,555899000,52824,3617.09,629979000,618854000,"Harris County","KLEIN",77379,3299,"21-Suburb: Large",30.04787,-95.533248,4802,"1-Metropolitan Area",53294,3653.1
"288","5103130","1250808",2022,"Prince William County Public Schools",867756947,0,0,520381119,127137030,1390687645,1593005209,"Virginia","VA",92237,5696.94,1302817000,1321655000,89548,5650.41,1425919000,1314351000,"Prince William County","Manassas",20112,NA,"21-Suburb: Large",38.63614,-77.434841,5101,"1-Metropolitan Area",90070,5631
"289","2502790","1267424",2022,"Boston City School",0,594129250,1270608900,0,0,2123695000,2123695000,"Massachusetts","MA",50480,4406.39,1550952000,1763526000,48112,4595.49,1654669000,1919037000,"Suffolk County","Roxbury",2119,NA,"11-City: Large",42.330141,-71.083712,2507,"1-Metropolitan Area",46169,4256.01
"290","5101260","1267421",2022,"Fairfax County Public Schools",3007244663,2163904859,380070500,0,0,3121966572,3657143582,"Virginia","VA",188887,13132.45,3154609000,3319353000,180028,13149.81,3288664000,3286505000,"Fairfax County","Falls Church",22042,NA,"21-Suburb: Large",38.868583,-77.22411,5111,"1-Metropolitan Area",178479,13199
"291","4702220","107065",2022,"Knox County Schools",156187494,16005458,46555298,0,0,623144333,781733372,"Tennessee","TN",61545,3925.3,604658000,596329000,59169,3931.42,653066000,611632000,"Knox County","Knoxville",37902,NA,"21-Suburb: Large",35.96136,-83.915571,4702,"1-Metropolitan Area",60426,4016.73
"292","3600077",NA,2020,"NEW YORK CITY GEOGRAPHIC DISTRICT # 2",3863393605.0684,0,2306532117.27996,NA,NA,2002375173.89723,1828178220.87758,"New York","NY",62229,4633.68,NA,NA,60446,4496.55,NA,NA,"New York County","NEW YORK",10001,NA,"11-City: Large",40.74741,-73.992971,3612,"1-Metropolitan Area",56893,4707.28
"293","3600087",NA,2020,"NEW YORK CITY GEOGRAPHIC DISTRICT #10",3307622187.36006,0,1974724189.88453,NA,NA,1714321974.3162,1565184256.11362,"New York","NY",53277,4107.9,NA,NA,51467,4058.62,NA,NA,"Bronx County","BRONX",10458,NA,"11-City: Large",40.860614,-73.890126,3615,"1-Metropolitan Area",46525,4107.03
"294","3600151",NA,2020,"NEW YORK CITY GEOGRAPHIC DISTRICT #20",3229210737.34155,0,1927910806.02613,NA,NA,1673681760.83643,1528079544.59699,"New York","NY",52014,3366.52,NA,NA,50119,3391.52,NA,NA,"Kings County","BROOKLYN",11209,NA,"11-City: Large",40.62024,-74.028521,3611,"1-Metropolitan Area",47493,3430.38
"295","3600098",NA,2020,"NEW YORK CITY GEOGRAPHIC DISTRICT #24",3585011228.28062,0,2140331631.75258,NA,NA,1858091153.91048,1696446212.61109,"New York","NY",57745,4182.78,NA,NA,54293,4182.09,NA,NA,"Queens County","CORONA",11368,NA,"11-City: Large",40.7424,-73.8629,3614,"1-Metropolitan Area",51878,4245.19
"296","3600103",NA,2020,"NEW YORK CITY GEOGRAPHIC DISTRICT #31",3985139332.29427,0,2379217030.77666,NA,NA,2065475299.49803,1885788940.81749,"New York","NY",64190,4579.82,NA,NA,62857,4668.6,NA,NA,"Richmond County","STATEN ISLAND",10301,4547,"11-City: Large",40.609046,-74.104347,3611,"1-Metropolitan Area",60749,4751.01
"297","3600077",NA,2021,"NEW YORK CITY GEOGRAPHIC DISTRICT # 2",3218935572.94571,0,2580870553.98612,75297408.3553671,NA,1938395662.48847,1918419816.4632,"New York","NY",62229,4633.68,NA,NA,60446,4496.55,NA,NA,"New York County","NEW YORK",10001,NA,"11-City: Large",40.74741,-73.992971,3612,"1-Metropolitan Area",56893,4707.28
"298","3600087",NA,2021,"NEW YORK CITY GEOGRAPHIC DISTRICT #10",2740776182.58937,0,2197493048.37381,64112293.8792588,NA,1650455109.70609,1633446591.89874,"New York","NY",53277,4107.9,NA,NA,51467,4058.62,NA,NA,"Bronx County","BRONX",10458,NA,"11-City: Large",40.860614,-73.890126,3615,"1-Metropolitan Area",46525,4107.03
"299","3600151",NA,2021,"NEW YORK CITY GEOGRAPHIC DISTRICT #20",2668991032.99584,0,2139937320.83562,62433094.15615,NA,1607227148.33504,1590664109.80576,"New York","NY",52014,3366.52,NA,NA,50119,3391.52,NA,NA,"Kings County","BROOKLYN",11209,NA,"11-City: Large",40.62024,-74.028521,3611,"1-Metropolitan Area",47493,3430.38
"300","3600098",NA,2021,"NEW YORK CITY GEOGRAPHIC DISTRICT #24",2891269381.95979,0,2318155129.99319,67632633.9515922,NA,1741079901.1264,1723137463.11148,"New York","NY",57745,4182.78,NA,NA,54293,4182.09,NA,NA,"Queens County","CORONA",11368,NA,"11-City: Large",40.7424,-73.8629,3614,"1-Metropolitan Area",51878,4245.19
"301","3600103",NA,2021,"NEW YORK CITY GEOGRAPHIC DISTRICT #31",3347328744.80774,0,2683813327.79514,78300784.1212538,NA,2015712142.3591,1994939522.93662,"New York","NY",64190,4579.82,NA,NA,62857,4668.6,NA,NA,"Richmond County","STATEN ISLAND",10301,4547,"11-City: Large",40.609046,-74.104347,3611,"1-Metropolitan Area",60749,4751.01
"302","3600077",NA,2022,"NEW YORK CITY GEOGRAPHIC DISTRICT # 2",3733134667.26196,0,1947877292.85038,NA,NA,2219386190.50068,2219386190.50068,"New York","NY",62229,4633.68,NA,NA,60446,4496.55,NA,NA,"New York County","NEW YORK",10001,NA,"11-City: Large",40.74741,-73.992971,3612,"1-Metropolitan Area",56893,4707.28
"303","3600087",NA,2022,"NEW YORK CITY GEOGRAPHIC DISTRICT #10",3052820037.51539,0,1592902308.71748,NA,NA,1814932285.39617,1814932285.39617,"New York","NY",53277,4107.9,NA,NA,51467,4058.62,NA,NA,"Bronx County","BRONX",10458,NA,"11-City: Large",40.860614,-73.890126,3615,"1-Metropolitan Area",46525,4107.03
"304","3600151",NA,2022,"NEW YORK CITY GEOGRAPHIC DISTRICT #20",3116337066.99018,0,1626044263.25458,NA,NA,1852693799.68447,1852693799.68447,"New York","NY",52014,3366.52,NA,NA,50119,3391.52,NA,NA,"Kings County","BROOKLYN",11209,NA,"11-City: Large",40.62024,-74.028521,3611,"1-Metropolitan Area",47493,3430.38
"305","3600098",NA,2022,"NEW YORK CITY GEOGRAPHIC DISTRICT #24",3404066585.84037,0,1776175947.80539,NA,NA,2023751899.01735,2023751899.01735,"New York","NY",57745,4182.78,NA,NA,54293,4182.09,NA,NA,"Queens County","CORONA",11368,NA,"11-City: Large",40.7424,-73.8629,3614,"1-Metropolitan Area",51878,4245.19
"306","3600103",NA,2022,"NEW YORK CITY GEOGRAPHIC DISTRICT #31",3986152916.90537,0,2079897310.09733,NA,NA,2369808090.39294,2369808090.39294,"New York","NY",64190,4579.82,NA,NA,62857,4668.6,NA,NA,"Richmond County","STATEN ISLAND",10301,4547,"11-City: Large",40.609046,-74.104347,3611,"1-Metropolitan Area",60749,4751.01
